{"markers":{"marker":[{"$":{"name":" Kells, C.B.S. Group","town":"Kells","lat":"53.7228805","lng":"-6.8813479","description":"C.B.S. Kells Edmund Rice Centre , Bective Street ","code":"L204"}},{"$":{"name":"Abbey Street Roscrea Roscrea","town":"Roscrea","lat":"52.9550961","lng":"-7.7991777","description":"St. Cronan's Legion Hall Abbey Street , Roscrea ","code":"M165"}},{"$":{"name":"Abbeydorney, Shannow","town":"Abbeydorney","lat":"52.3456223","lng":"-9.6899535","description":"Shannow Family Centre The Cloisters , Abbeydorney","code":"M248"}},{"$":{"name":"Abbeyfeale","town":"Abbeyfeale","lat":"52.388474","lng":"-9.288833","description":"Vocational School (Tec) Mountmahon , Abbeyfeale","code":"M112"}},{"$":{"name":"Abbeyleix","town":"Abbeyleix","lat":"52.913231","lng":"-7.347021","description":"Knocknamoe House Ballinakill Road , Abbeyleix","code":"L36"}},{"$":{"name":"Achill Sound","town":"Achill","lat":"53.9644376","lng":"-9.9856874","description":"Achill Sound National School Achill Sound , Achill","code":"C112"}},{"$":{"name":"Adare","town":"Adare","lat":"52.5636002","lng":"-8.7896395","description":"CBS Christian Brothers Nat. School Rathkeale Road , Adare","code":"M113"}},{"$":{"name":"Aghalee","town":"Aghalee","lat":"54.5196999","lng":"-6.2691144","description":"Soldierstown Church of Ireland Hall Soldierstown Road Aghalee , BT67 0DD ","code":"U37"}},{"$":{"name":"Airport 1st Airport Group","town":"Dublin-N","lat":"53.428624","lng":"-6.241887","description":"Presbytery Church  Church Grounds , Dublin Airport","code":"L18"}},{"$":{"name":"Allenwood","town":"Allenwood","lat":"53.2839821","lng":"-6.8609084","description":"Parish Church , Allenwood","code":"L160"}},{"$":{"name":"Antrim, Castle Street","town":"Antrim","lat":"54.717959","lng":"-6.219571","description":"St. Comgalls Youth Centre Castle Street Antrim , BT41 4HP ","code":"U1"}},{"$":{"name":"Antrim, Greystone","town":"Antrim","lat":"54.71177","lng":"-6.182975","description":"Greystone Community Centre 30 Ballycraigy Road Antrim , BT41 1PW","code":"U2"}},{"$":{"name":"Ardagh","town":"Ardagh","lat":"53.6670952","lng":"-7.6941077","description":"The Heritage Centre Lynmore Edgeworthstown Road , Ardagh","code":"L179"}},{"$":{"name":"Ardara","town":"Ardara","lat":"54.767143","lng":"-8.409282","description":"Ardara Resource Centre Wood Road , Ardara","code":"U84"}},{"$":{"name":"Ardee","town":"Ardee","lat":"53.855824","lng":"-6.549429","description":"St. Bridget's Hospital , Ardee","code":"L188"}},{"$":{"name":"Ardfert","town":"Ardfert","lat":"52.331481","lng":"-9.779098","description":"Retreat Centre Ardfert , Tralee","code":"M90"}},{"$":{"name":"Ardglass","town":"Ardglass","lat":"54.262268","lng":"-5.607962","description":"Ardglass Marina The Quay Bath Street Ardglass , BT30 7SE","code":"U109"}},{"$":{"name":"Ardmore Group","town":"Ardmore","lat":"51.951103","lng":"-7.724075","description":"I.C.A. Hall Main Street , Ardmore ","code":"M263"}},{"$":{"name":"Arklow","town":"Arklow","lat":"52.794556","lng":"-6.162847","description":"1A Wexford Road ,  Arklow","code":"L251"}},{"$":{"name":"Arklow Main St. Gp.","town":"Arklow","lat":"52.797640","lng":"-6.160495","description":"H.S.E. Addiction Centre 12 Upper Main Street (Opp. St. V. De P. Shop) , Arklow","code":"L363"}},{"$":{"name":"Armagh, Cathedral Road ","town":"Armagh","lat":"54.351364","lng":"-6.65965","description":"19A Cathedral Road Armagh , BT61 7QX","code":"u215"}},{"$":{"name":"Armagh, Railway St. ","town":"Armagh","lat":"54.353852","lng":"-6.654569","description":"The Pensioners Club 45-47 Railway Street Armagh City , BT61 7HP ","code":"U38"}},{"$":{"name":"Artane ","town":"Dublin-N","lat":"53.382522","lng":"-6.213520","description":"The Oratory Kilmore Road , Artane ","code":"L17"}},{"$":{"name":"Ashbourne, One Day at a time","town":"Ashbourne","lat":"53.513795","lng":"-6.40268","description":"Ashbourne Health Centre North Road North Main Street , Ashbourne ","code":"L198"}},{"$":{"name":"Ashbourne, Stepping Stones","town":"Ashbourne","lat":"53.51236","lng":"-6.398828","description":"Prefab-Church Grounds Frederick Street , Ashbourne","code":"L356"}},{"$":{"name":"Ashford","town":"Ashford","lat":"53.015203","lng":"-6.106159","description":"Ashford National School , Ashford","code":"L87"}},{"$":{"name":"Ashford","town":"Ashford","lat":"52.3634135","lng":"-9.0441900","description":"Kantoher Old Co-Op Kantoher Enterprise Park Ballagh , Ashford ","code":"M203"}},{"$":{"name":"Askeaton","town":"Askeaton","lat":"52.6008105","lng":"-8.9709156","description":"Community Centre Askeaton , Askeaton ","code":"M114"}},{"$":{"name":"Athea","town":"Athea","lat":"52.4619366","lng":"-9.2901025","description":"Church Grounds , Athea","code":"M115"}},{"$":{"name":"Athenry Wed. Night","town":"Athenry","lat":"53.299333","lng":"-8.748204","description":"Canton Hall Church Street , Athenry","code":"C175"}},{"$":{"name":"Athlone, Bower ","town":"Athlone","lat":"53.4249355","lng":"-7.9449400","description":"Bower Convent Retreat Road , Athlone","code":"L228"}},{"$":{"name":"Athlone, Dr. Dobbs","town":"Athlone","lat":"53.4249355","lng":"-7.9449400","description":"Back of Peek a Boo Centre Patrick Street Off Connaught Street , Athlone","code":"L225"}},{"$":{"name":"Athlone, Friary","town":"Athlone","lat":"53.4249355","lng":"-7.9449400","description":"The Friary Franciscan Church Friary Lane , Athlone","code":"L226"}},{"$":{"name":"Athlone, G‏órnik Group","town":"Athlone","lat":"53.423577","lng":"-7.938116","description":"Meeting Room St. Mary's Church , Athlone","code":"L400"}},{"$":{"name":"Athlone, Loughlow House","town":"Athlone","lat":"53.4249355","lng":"-7.9449400","description":"Loughlow House Day Care Centre Abbey Road , Athlone","code":"L224"}},{"$":{"name":"Athlone, St. Ciaran's","town":"Athlone","lat":"53.431627","lng":"-7.943139","description":"St. Ciaran's Community Centre Coosan Road , Athlone ","code":"L383"}},{"$":{"name":"Athlone, Summerhill ","town":"Athlone","lat":"53.4249355","lng":"-7.9449400","description":"Summerhill Convent Ballinasloe Road , Athlone","code":"L227"}},{"$":{"name":"Athlone, Young @ Heart","town":"Athlone","lat":"53.423361","lng":"-7.985813","description":"Monksland Community Centre Old Tuam Road Monksland , Athlone","code":"L411"}},{"$":{"name":"Athy Group","town":"Athy","lat":"52.995828","lng":"-6.991918","description":"C.D.P. Building Woodstock Street , Athy ","code":"L284"}},{"$":{"name":"Athy, Live and Let Live Group  2","town":"Athy","lat":"52.9919671","lng":"-6.9869824","description":"Cuan Mhuire Treatment Centre Cardington , Athy ","code":"L145"}},{"$":{"name":"Athy, Live and Let Live Group 1","town":"Athy","lat":"52.995828","lng":"-6.991916","description":"C.D.P. Building Woodstock Street , Athy","code":"L146"}},{"$":{"name":"Aughnacliffe","town":"Aughnacliffe","lat":"53.845568","lng":"-7.605736","description":"C/o St Colmcillie's National School , Aughnacliffe ","code":"L180"}},{"$":{"name":"Aughnacloy","town":"Auchnacloy","lat":"54.41552","lng":"-6.977418","description":"69D Moore Street Above McSorley's Chemist Aughnacloy , BT69 6AR  ","code":"U144"}},{"$":{"name":"Aughrim Street","town":"Dublin-N","lat":"53.354603","lng":"-6.28838","description":"Rear of Aughrim Street  Parish Church , Aughrim Street","code":"L382"}},{"$":{"name":"Bagenalstown","town":"Bagnelstown","lat":"52.7030774","lng":"-6.9586558","description":"Queen of the Universe Girls Primary School , Bagenalstown","code":"L1"}},{"$":{"name":"Bailieborough","town":"Bailieborough","lat":"53.913358","lng":"-6.969955","description":"Mental Health Centre Kells Road , Bailieborough","code":"U53"}},{"$":{"name":"Balbriggan","town":"Dublin-N","lat":"53.607530","lng":"-6.179520","description":"Failte Balbriggan Old St. Georges School Hampton Street , Balbriggan","code":"L20"}},{"$":{"name":"Baldoyle Group","town":"Dublin-N","lat":"53.399170","lng":"-6.127566","description":"Parish Centre St. Peter & Paul's Church , Baldoyle","code":"L21"}},{"$":{"name":"Balla","town":"Balla","lat":"53.802019","lng":"-9.130422","description":"Medical Centre , Balla","code":"C146"}},{"$":{"name":"Ballaghaderreen","town":"Ballaghaderreen","lat":"53.9000850","lng":"-8.5814437","description":"Social Services Centre Oak Grove , Ballaghaderreen","code":"C76"}},{"$":{"name":"Ballina No.1 Gp., Teeling St. ","town":"Ballina","lat":"54.114654","lng":"-9.158478","description":"Vincent De Paul House Teeling Street , Ballina","code":"C48"}},{"$":{"name":"Ballina No2, Teeling St. ","town":"Ballina","lat":"54.114048","lng":"-9.158872","description":"Community Centre Room 1 Teeling Street , Ballina","code":"C49"}},{"$":{"name":"Ballina, Bangor Erris","town":"Bangor Erris","lat":"54.1118998","lng":"-9.1573265","description":"Parish Hall Bangor Erris , Ballina ","code":"C106"}},{"$":{"name":"Ballina, Big Book","town":"Ballina","lat":"54.113982","lng":"-9.158702","description":"Room 1, First Floor Ballina Community Centre Teeling Street , Ballina","code":"C50"}},{"$":{"name":"Ballina, Creevagh","town":"Ballina","lat":"54.2955","lng":"-9.2655","description":"Creevagh Social Centre Creevagh  Carrowmore-Lacken , Ballina","code":"C148"}},{"$":{"name":"Ballina, Matt Talbot Grp.","town":"Ballina","lat":"54.114050","lng":"-9.158874","description":"Community Centre Room 5 Teeling Street , Ballina","code":"C51"}},{"$":{"name":"Ballina, Step Group.","town":"Ballina","lat":"54.1118998","lng":"-9.1573265","description":"Ballina Community Centre Teeling Street , Ballina ","code":"C161"}},{"$":{"name":"Ballinamore","town":"Ballinamore","lat":"54.0515373","lng":"-7.7979113","description":"Community Centre  (St. V. De Paul) \"Trathnona\" Lahard , Ballinamore ","code":"C41"}},{"$":{"name":"Ballinasloe ","town":"Ballinasloe","lat":"53.3269849","lng":"-8.2173073","description":"Social Service Centre Brackernagh , Ballinasloe","code":"C104"}},{"$":{"name":"Ballinasloe, Brackernagh","town":"Ballinasloe","lat":"53.3269849","lng":"-8.2173073","description":"Social Service Centre Brackernagh , Ballinasloe","code":"C4"}},{"$":{"name":"Ballincollig","town":"Ballincollig","lat":"51.886674","lng":"-8.591634","description":"Community Centre Station Road , Ballincollig","code":"M24"}},{"$":{"name":"Ballinderry","town":"Ballinderry","lat":"54.669705","lng":"-6.547186","description":"142 Ballinderry Bridge Road Cookstown , BT80 0AY","code":"U64"}},{"$":{"name":"Ballinlough","town":"Ballinlough","lat":"51.8896258","lng":"-8.4470861","description":"Ballinlough Community Centre Ballinlough Road  , Ballinlough ","code":"M237"}},{"$":{"name":"Ballinrobe","town":"Ballinrobe","lat":"53.61810843","lng":"-9.2233459","description":"Crann Mór Neale Road , Ballinrobe","code":"C52"}},{"$":{"name":"Ballinteer","town":"Dublin-S","lat":"53.275476","lng":"-6.251897","description":"Ballinteer Health Centre Ballinteer Ave. , Ballinteer  ","code":"L66"}},{"$":{"name":"Ballintra","town":"Ballintra","lat":"54.578716","lng":"-8.124976","description":"Methodist Hall Ballintra Methodist Church , Ballintra","code":"U85"}},{"$":{"name":"Ballintubber","town":"Ballintubber","lat":"53.747518","lng":"-9.298983","description":"Celtic Furrow , Ballintubber ","code":"C150"}},{"$":{"name":"Ballisodare","town":"Ballisodare","lat":"54.2106528","lng":"-8.5070830","description":"Ballisodare Parish Centre Coraunagh Parish Church Ballina Road , Ballisodare","code":"C129"}},{"$":{"name":"Ballivor","town":"Ballivor","lat":"53.533038","lng":"-6.963487","description":"Poyton House Parish Centre Church of Columbanus Grounds , Ballivor","code":"L200"}},{"$":{"name":"Ballybay","town":"Ballybay","lat":"54.131377","lng":"-6.904423","description":"Confraternity Rooms St. Patrick Street (Opp. St. Patrick's Catholic Church) , Monaghan Road , Ballybay","code":"U136"}},{"$":{"name":"Ballybay Corfad","town":"Ballybay","lat":"54.136306","lng":"-6.911337","description":"Cuan Mhuire Monaghan Road , Ballybay","code":"U252"}},{"$":{"name":"Ballyboden","town":"Dublin-S","lat":"53.280220","lng":"-6.293803","description":"St Augustines Taylors Lane , Ballyboden ","code":"L269"}},{"$":{"name":"Ballybunion","town":"Ballybunion","lat":"52.518463","lng":"-9.674578","description":"Meeting Room Old Convent Doon Road , Ballybunion","code":"M91"}},{"$":{"name":"Ballycastle","town":"Ballycastle","lat":"55.203078","lng":"-6.238389","description":"Rathmoyle Day Centre Mary Street Ballycastle , BT54 6QH","code":"U3"}},{"$":{"name":"Ballycastle","town":"Ballycastle","lat":"54.2800903","lng":"-9.3707923","description":"Ballycastle Hall , Ballycastle","code":"C53"}},{"$":{"name":"Ballyconnell","town":"Ballyconnell","lat":"54.114882","lng":"-7.581818","description":"Church Street Centre Church Street , Ballyconnell","code":"U54"}},{"$":{"name":"Ballyduff","town":"Ballyduff","lat":"52.452989","lng":"-9.663323","description":"National School Ballyduff , Tralee ","code":"M92"}},{"$":{"name":"Ballyfermot Cherry Orchard Group","town":"Dublin-S","lat":"53.3428366","lng":"-6.3595586","description":"Cherry Orchard Hospital , Ballyfermot Road Upper","code":"L69"}},{"$":{"name":"Ballyfermot Harmony Group","town":"Dublin-S","lat":"53.3427499","lng":"-6.3585484","description":"Resource Centre , Ballyfermot Road","code":"L70"}},{"$":{"name":"Ballyfermot Serenity Group","town":"Dublin-S","lat":"53.343053","lng":"-6.350771","description":"Back of Assumption Church Ballyfermot Road , Ballyfermot","code":"L68"}},{"$":{"name":"Ballygarrett","town":"Ballygarrett","lat":"52.641231","lng":"-6.236447","description":"Church of Our Lady , Ballygarrett ","code":"L369"}},{"$":{"name":"Ballygawley","town":"Ballygawley","lat":"54.460959","lng":"-7.030793","description":"4 Fairfield House Main Street Ballygawley Playing Fields Ballygawley , BT70 2HE","code":"U145"}},{"$":{"name":"Ballyhaunis","town":"Ballyhaunis","lat":"53.7640131","lng":"-8.7635858","description":"Convent National School Knock Road , Ballyhaunis","code":"C54"}},{"$":{"name":"Ballyhaunis 2 (Friday Night Group)","town":"Ballyhaunis","lat":"53.76128","lng":"-8.764349","description":"Family Resource Centre Friary Grounds Abbey Quarter , Ballyhaunis","code":"C156"}},{"$":{"name":"Ballyheigue","town":"Ballyheigue","lat":"52.40371","lng":"-9.81446","description":"Bouleenshere National School , Ballyheigue  ","code":"M218"}},{"$":{"name":"Ballyjamesduff, Killnacrott","town":"Ballyjamesduff","lat":"53.835953","lng":"-7.236382","description":"Kilnacrott , Ballyjamesduff","code":"U55"}},{"$":{"name":"Ballymahon","town":"Ballymahon","lat":"53.566847","lng":"-7.767693","description":"Daycare Centre Church Avenue , Ballymahon","code":"L181"}},{"$":{"name":"Ballymena, Big Book Group","town":"Ballymena","lat":"54.851564","lng":"-6.260566","description":"George Sloan Centre Pennybridge Industrial Estate Ballymena , BT42 3HB","code":"U5"}},{"$":{"name":"Ballymena, Fountain Place","town":"Ballymena","lat":"54.86776","lng":"-6.278590","description":"21A Fountain Place Ballymena , BT43 6DX","code":"U4"}},{"$":{"name":"Ballymena-Doagh, Country Group","town":"Ballymena","lat":"54.782140","lng":"-6.133418","description":"Tardree Old School Doagh Road , Ballymena","code":"U217"}},{"$":{"name":"Ballymoney","town":"Ballymoney","lat":"55.065414","lng":"-6.48579","description":"Millbrook Resource Centre 47A Ballymena Road , BT53 7EZ","code":"U6"}},{"$":{"name":"Ballymote","town":"Ballymote","lat":"54.0873787","lng":"-8.5167705","description":"Girls National School Pearse Road , Ballymote","code":"C85"}},{"$":{"name":"Ballymun","town":"Dublin-N","lat":"53.395613","lng":"-6.273102","description":"Women's Resource Centre Sillogue/Sandyhill  Neighbourhood Centre Marewood Court Sillogue Road , Ballymun ","code":"L315"}},{"$":{"name":"Ballymun Helix Group","town":"Dublin-N","lat":"53.385504","lng":"-6.25894","description":"Quiet Room Interfaith Centre D.C.U. Collins Ave. , Ballymun ","code":"L330"}},{"$":{"name":"Ballynahinch","town":"Ballynahinch","lat":"54.401434","lng":"-5.916377","description":"22 Edenavaddy Road Ballynahinch , BT24 8JH","code":"U110"}},{"$":{"name":"Ballyragget","town":"Ballyragget","lat":"52.7884474","lng":"-7.3349152","description":"Aislinn Sports Hall , Ballyragget","code":"L161"}},{"$":{"name":"Ballysax","town":"Ballysax","lat":"53.1216867","lng":"-6.8835278","description":"St. Brigids National School Ballysax  , Curragh    ","code":"L270"}},{"$":{"name":"Ballyshannon","town":"Ballyshannon","lat":"54.504323","lng":"-8.189839","description":"Gaélscóil Eirne (Beside Spar Supermarket) , Ballyshannon","code":"U86"}},{"$":{"name":"Ballyvaughan Wed. Night AA","town":"Ballyvaughan","lat":"53.115859","lng":"-9.147052","description":"St. John's Hall , Ballyvaughan","code":"M1"}},{"$":{"name":"Ballywaltrim","town":"Bray","lat":"53.187951","lng":"-6.126986","description":"St. Clare's Centre Ballymorris  Killarney Road , Bray    ","code":"L254"}},{"$":{"name":"Baltinglass, Easy Does It","town":"Baltinglass","lat":"52.939302","lng":"-6.704171","description":"The Parish Centre (Lalor Centre) , Baltinglass ","code":"L252"}},{"$":{"name":"Banbridge","town":"Banbridge","lat":"54.347027","lng":"-6.271428","description":"43 Newry Street Banbridge , BT32 3EA","code":"U111"}},{"$":{"name":"Bandon","town":"Bandon","lat":"51.747864","lng":"-8.744366","description":"Presentation Convent Dunmanway Road  , Bandon","code":"M25"}},{"$":{"name":"Bandon Riverview Group","town":"Bandon","lat":"51.7490143","lng":"-8.7355059","description":"Rear of Town Hall North Main Street , Bandon","code":"M231"}},{"$":{"name":"Bangor","town":"Bangor","lat":"54.663344","lng":"-5.662371","description":"113B High Street (Above Gorgeous) Bangor , BT20 5BD","code":"U112"}},{"$":{"name":"Bantry No 1","town":"Bantry","lat":"51.6809979","lng":"-9.4503702","description":"Ian O' Connor Room St. Brendan's Church The Square , Bantry","code":"M28"}},{"$":{"name":"Bantry No 2","town":"Bantry","lat":"51.6809979","lng":"-9.4503702","description":"O. T. Room Bantry Hospital , Bantry","code":"M29"}},{"$":{"name":"Bantry No 4","town":"Bantry","lat":"51.679629","lng":"-9.449208","description":"West Cork  Development Partnership Main Street , Bantry","code":"M199"}},{"$":{"name":"Barna","town":"Barna","lat":"53.2616688","lng":"-9.1307674","description":"An Cillín Rear of Barna Church , Barna","code":"C6"}},{"$":{"name":"Beaumont Hospital","town":"Dublin-N","lat":"53.390316","lng":"-6.223154","description":"The Blue Room Beaumont Hospital Beaumont Road , Beaumont","code":"L26"}},{"$":{"name":"Belfast Central","town":"Belfast","lat":"54.600074","lng":"-5.924603","description":"St. Georges Church 105 High Street Belfast , BT1 2AG","code":"U239"}},{"$":{"name":"Belfast, 174 Antrim Road","town":"Belfast","lat":"54.612417","lng":"-5.937166","description":"Duncairn Complex Duncairn Avenue Belfast , BT14 6BP ","code":"U7"}},{"$":{"name":"Belfast, Antrim Road","town":"Belfast","lat":"54.626571","lng":"-5.937204","description":"Fortwilliam Presbyterian Church Alexander Gardens Belfast  , BT15 3LJ","code":"U185"}},{"$":{"name":"Belfast, Arches","town":"Belfast","lat":"54.605157","lng":"-5.878753","description":"St. Brendan's Church  Larkfield Road Belfast , BT4 1QE","code":"U175"}},{"$":{"name":"Belfast, Ballyowen","town":"Belfast","lat":"54.573078","lng":"-5.995166","description":"Ballyowen Health Centre Andersonstown Road Belfast , BT11 9EA","code":"U9"}},{"$":{"name":"Belfast, Crumlin Road","town":"Belfast","lat":"54.611831","lng":"-5.958053","description":"432 Crumlin Road Belfast , BT14 7GG","code":"U199"}},{"$":{"name":"Belfast, Derryvolgie Ave","town":"Belfast","lat":"54.578298","lng":"-5.942421","description":"St. Bridget's Parish Hall Derryvolgie Ave. Malone Road , BT9 6FP ","code":"U238"}},{"$":{"name":"Belfast, Donegall Pass","town":"Belfast","lat":"54.590479","lng":"-5.928969","description":"Community Centre Apsley St. Belfast  , BT7 1BL","code":"U15"}},{"$":{"name":"Belfast, Dublin Road","town":"Belfast","lat":"54.591086","lng":"-5.93326","description":"75 Dublin Road , BT2 7HF ","code":"u178"}},{"$":{"name":"Belfast, Dunlewey","town":"Belfast","lat":"54.597467","lng":"-5.953748","description":"Dunlewey Centre Dumlewey Street Belfast , BT13 2QV","code":"U258"}},{"$":{"name":"Belfast, Dunmurry","town":"Belfast","lat":"54.550615","lng":"-5.997564","description":"Dunmurry Sports Pavillion Glenburn Road Dunmurry , BT17 9AG","code":"U16"}},{"$":{"name":"Belfast, East End","town":"Belfast","lat":"54.598573","lng":"-5.898768","description":"Skainos Centre 239 Newtownards Road Belfast , BT4 1AF ","code":"U17"}},{"$":{"name":"Belfast, Lisburn Road","town":"Belfast","lat":"54.586368","lng":"-5.939642","description":"62 Lisburn Road Belfast , BT9 6AF","code":"U19"}},{"$":{"name":"Belfast, Loft, Falls Road","town":"Belfast","lat":"54.587959","lng":"-5.970287","description":"St. John's Play Group 446-448 Falls Road Belfast , BT12 6EN","code":"U11"}},{"$":{"name":"Belfast, Morning Star Gp.","town":"Belfast","lat":"54.599025","lng":"-5.945046","description":"St. Peter's Parish Centre Albert Street , BT12 4BU  ","code":"U181"}},{"$":{"name":"Belfast, Poleglass","town":"Belfast","lat":"54.564589","lng":"-6.025309","description":"Footprints Womens Centre 84A Colinmill Poleglass , BT17 0AR ","code":"U22"}},{"$":{"name":"Belfast, Rosetta","town":"Belfast","lat":"54.570059","lng":"-5.913584","description":"St. John's Church Rosetta 374 Ormeau Road Belfast , BT7 3HX ","code":"U262"}},{"$":{"name":"Belfast, Short Strand","town":"Belfast","lat":"54.597550","lng":"-5.907190","description":"Beechfield Community Centre Short Strand Belfast BT5 4EQ","code":"u23"}},{"$":{"name":"Belfast, The Murph","town":"Belfast","lat":"54.593694","lng":"-5.978493","description":"Corpus Christi Church Hall Springhill Grove , BT12 7SL","code":"U227"}},{"$":{"name":"Belfast, The Stables","town":"Belfast","lat":"54.581376","lng":"-5.990877","description":"The Stables St. Teresa's Church 131 Glen Road Belfast , BT11 8BL","code":"U203"}},{"$":{"name":"Belfast, Twinbrook","town":"Belfast","lat":"54.555297","lng":"-6.023102","description":"Cara House Behind St. Luke's Church Twinbrook Road Twinbrook , BT17 0RL    ","code":"U24"}},{"$":{"name":"Belfast, West Kirk","town":"Belfast","lat":"54.603765","lng":"-5.95128","description":"West Kirk Presbyterian Church 236a Shankill Road , BT13 2BL ","code":"u226"}},{"$":{"name":"Belfast, Woodvale","town":"Belfast","lat":"54.608845","lng":"-5.963328","description":"Woodvale Presbyterian Church Woodvale Road , BT13 3BU","code":"U25"}},{"$":{"name":"Belfield UCD","town":"Dublin-S","lat":"53.305286","lng":"-6.222006","description":"Room  Goo5 Newman Building Arts Block UCD Campus , Belfield","code":"L75"}},{"$":{"name":"Belleek","town":"Belleek","lat":"54.48007","lng":"-8.094814","description":"Stepping Stones Centre 49 Main Street Belleek , BT93 1UP","code":"U128"}},{"$":{"name":"Belmullet","town":"Belmullet","lat":"54.2246858","lng":"-9.9910021","description":"Old Folks Home , Belmullet","code":"C56"}},{"$":{"name":"Belturbet","town":"Belturbet","lat":"54.101568","lng":"-7.447812","description":"The Clubrooms Lower Bridge Street (To Left of Antique Shop) , Belturbet ","code":"U57"}},{"$":{"name":"Bessbrook","town":"Bessbrook","lat":"54.192659","lng":"-6.395202","description":"Bessbrook Community Centre Crow's Walk Mill Road Bessbrook , BT35 7BS  ","code":"U191"}},{"$":{"name":"Birr","town":"Birr","lat":"53.0941462","lng":"-7.9082440","description":"Mental Health Centre , Wilmer Road ","code":"L219"}},{"$":{"name":"Birr, St. Frances","town":"Birr","lat":"53.095793","lng":"-7.907876","description":"The Curate's House John's Mall , Birr ","code":"L408"}},{"$":{"name":"Blacklion","town":"Blacklion","lat":"54.2907137","lng":"-7.8783443","description":"Health Centre Main Street , Blacklion","code":"U58"}},{"$":{"name":"Blanchardstown","town":"Dublin-N","lat":"53.384976","lng":"-6.375426","description":"St. Brigid's Community Centre Church Avenue , Blanchardstown","code":"L25"}},{"$":{"name":"Blanchardstown, Hospital Group","town":"Dublin-N","lat":"53.387168","lng":"-6.368680","description":"Academic Centre Connelly Hospital , Blanchardstown","code":"L407"}},{"$":{"name":"Blessington","town":"Blessington","lat":"53.1703637","lng":"-6.5332800","description":"Blessington Health Centre Kilbride Road , Blessington ","code":"L253"}},{"$":{"name":"Booterstown","town":"Dublin-S","lat":"53.308793","lng":"-6.197684","description":"Community Centre (beside Punch Bowl) Grotto Ave. , Booterstown ","code":"L77"}},{"$":{"name":"Borrisokane","town":"Borrisokane","lat":"52.9943730","lng":"-8.1277771","description":"Old Church Mill Street , Borrisokane ","code":"M144"}},{"$":{"name":"Borrisoleigh","town":"Borrisoleigh","lat":"52.7529887","lng":"-7.9573637","description":"Community Hall Main Street , Borrisoleigh","code":"M145"}},{"$":{"name":"Boyle","town":"Boyle","lat":"53.974995","lng":"-8.294967","description":"St Joseph's Resource Centre Abbeytown , Boyle","code":"C77"}},{"$":{"name":"Boyle Midday Group","town":"Boyle","lat":"53.9718292","lng":"-8.3003465","description":"St. Joseph's Hall (Off the Cresent) , Boyle ","code":"C168"}},{"$":{"name":"Bray Central","town":"Bray","lat":"53.204127","lng":"-6.110791","description":"Room 9 Parish Centre Herbert Road , Bray","code":"L255"}},{"$":{"name":"Bray, Vevay","town":"Bray","lat":"53.193086","lng":"-6.105032","description":"Villas Pacis Beside Queen of Peace Church Vevay Road , Bray","code":"L256"}},{"$":{"name":"Bridgetown","town":"Bridgetown","lat":"52.2456661","lng":"-6.5487876","description":"AOH Hall , Bridgetown ","code":"L370"}},{"$":{"name":"Broadford","town":"Broadford","lat":"52.3457679","lng":"-8.9744218","description":"Broadford Parish Hall , Broadford ","code":"M117"}},{"$":{"name":"Brocagh","town":"Brocagh","lat":"54.554905","lng":"-6.611241","description":"Old School  Mountjoy Road Brocagh , BT71 5DY","code":"U169"}},{"$":{"name":"Bruckless","town":"Bruckless","lat":"54.640574","lng":"-8.389687","description":"Bruckless National School , Bruckless ","code":"U87"}},{"$":{"name":"Bruff","town":"Bruff","lat":"52.478724","lng":"-8.548130","description":"The Band Room Athlacca Road , Bruff","code":"M252"}},{"$":{"name":"Bruree","town":"Bruree","lat":"52.4224766","lng":"-8.6589006","description":"Cuan Mhuire , Bruree ","code":"M255"}},{"$":{"name":"Bunclody","town":"Bunclody","lat":"52.6359798","lng":"-6.6174310","description":"Brennans  Market Square , Bunclody ","code":"L238"}},{"$":{"name":"Buncrana","town":"Buncrana","lat":"55.134555","lng":"-7.45166","description":"Buncrana Nursing Unit Maginn Ave , Buncrana","code":"U88"}},{"$":{"name":"Buncrana Sunday","town":"Buncrana","lat":"55.133566","lng":"-7.455291","description":"St. Teresa's Hall Back of the Church St. Mary's Road , Buncrana","code":"U218"}},{"$":{"name":"Bundoran","town":"Bundoran","lat":"54.476442","lng":"-8.278603","description":"Maghene Parish Centre (beside Parish Church) Church Road , Bundoran","code":"U89"}},{"$":{"name":"Burren","town":"Burren","lat":"54.131416","lng":"-6.262191","description":"Parochial House 84 Milltown St. Burren Warrenpoint , BT34 3PU","code":"U201"}},{"$":{"name":"Cahir, Towns Park","town":"Cahir","lat":"52.3760233","lng":"-7.9255093","description":"The Hall Aiseiri Treatment Centre , Cahir","code":"M147"}},{"$":{"name":"Cahirciveen, South Kerry","town":"Cahirciveen","lat":"51.946067","lng":"-10.231399","description":"Social Services Centre The Avenue , Cahirciveen","code":"M94"}},{"$":{"name":"Callan","town":"Callan","lat":"52.5455537","lng":"-7.3963380","description":"Rear of Big Chapel Old Parochial House Green Street , Callan","code":"L162"}},{"$":{"name":"Camlough","town":"Camlough","lat":"54.181116","lng":"-6.410487","description":"Camlough Community Centre Quarter Road Camlough , BT35 7EY ","code":"U40"}},{"$":{"name":"Cappoquin","town":"Cappoquin","lat":"52.252729","lng":"-7.125608","description":"Day Care Centre , Cappoquin","code":"M262"}},{"$":{"name":"Cappoquin, Mount Mellary","town":"Cappoquin","lat":"52.1474677","lng":"-7.8517027","description":"Mount Mellary Abbey Mount Mellary , Cappoquin Co Waterford","code":"M177"}},{"$":{"name":"Carlow","town":"Carlow","lat":"52.839863","lng":"-6.922787","description":"St. Catherine's  Social Services Centre Station Road , Carlow ","code":"L2"}},{"$":{"name":"Carlow, Keep It Simple","town":"Askea Carlow","lat":"52.83171","lng":"-6.914831","description":"The Language School 46 Idrone Park (Near to Éire Óg Football Club) Askea , Carlow","code":"L288"}},{"$":{"name":"Carlow, There is a Solution","town":"Carlow","lat":"52.835362","lng":"-6.920528","description":"New Oak Centre New Oak  , Carlow","code":"L386"}},{"$":{"name":"Carna","town":"Carna","lat":"53.3258112","lng":"-9.8388224","description":"Teach An Udarais (Lane by Petrol Station) , Carna","code":"C7"}},{"$":{"name":"Carndonagh","town":"Carndonagh","lat":"55.245984","lng":"-7.268293","description":"Day Centre James Connolly Hospital Derry Road , Carndonagh ","code":"U90"}},{"$":{"name":"Carraroe","town":"Carraroe","lat":"53.264108","lng":"-9.598267","description":"The National School , Carraroe","code":"C8"}},{"$":{"name":"Carrick","town":"Carrick","lat":"54.658079","lng":"-8.63411","description":"Day Care Centre , Carrick","code":"U91"}},{"$":{"name":"Carrick","town":"Carrickfergus","lat":"54.721711","lng":"-5.813822","description":"Sunnylands Community Ctr. Bridewell Drive Carrickfergus , BT38 8JW","code":"U26"}},{"$":{"name":"Carrickmacross","town":"Carrickmacross","lat":"53.976392","lng":"-6.715093","description":"Teach Ni Bhrian St. Joseph's Church Grounds , O'Neill Street","code":"U137"}},{"$":{"name":"Carrickmore","town":"Carrickmore","lat":"54.596105","lng":"-7.049307","description":"Health Centre Termon Road Carrickmore , BT79 2JR","code":"U147"}},{"$":{"name":"Carrick-on-Shannon","town":"Carrick-on-Shannon","lat":"53.95022","lng":"-8.085058","description":"St. Patrick's Hospital Summerhill , Carrick-on-Shannon ","code":"C42"}},{"$":{"name":"Carrick-On-Suir Group","town":"Carrick-on-Suir","lat":"52.347531","lng":"-7.417188","description":"St. Joseph's College Clonmel Road , Carrick-On-Suir ","code":"M149"}},{"$":{"name":"Carrigaline","town":"Carrigaline","lat":"51.815009","lng":"-8.387160","description":"Carrigaline Community Complex Curaghabinny Road , Carrigaline ","code":"M34"}},{"$":{"name":"Carrigtwohill BB and Step Gp.","town":"Carrigtwohill","lat":"51.909181","lng":"-8.263293","description":"Community Centre Main Street , Carrigtwohill","code":"M261"}},{"$":{"name":"Carryduff","town":"Carryduff","lat":"54.51607","lng":"-5.883302","description":"St. Ignatius  Church of Ireland 700 Saintfield Road , BT8 8BU","code":"U10"}},{"$":{"name":"Cashel","town":"Cashel","lat":"52.5168543","lng":"-7.8896206","description":"St. Michael's Ward St. Patrick's Hospital , Cashel","code":"M150"}},{"$":{"name":"Castlebar \"Group 1\"","town":"Castlebar","lat":"53.858538","lng":"-9.300646","description":"Room 1 The Parish Centre Chapel Street , Castlebar","code":"C58"}},{"$":{"name":"Castlebar And District","town":"Castlebar","lat":"53.855944","lng":"-9.29696","description":"Social Services Centre Castle Street Car Park , Castlebar","code":"C143"}},{"$":{"name":"Castlebar, Castle Lane","town":"Castlebar","lat":"53.855982","lng":"-9.296579","description":"Social Service Centre Castle Street Car Park , Castlebar  ","code":"C164"}},{"$":{"name":"Castleblayney","town":"Castleblayney","lat":"54.11992","lng":"-6.743277","description":"Room 22 Our Lady's Convent of Mercy Laurel Hill  , Castleblayney","code":"U138"}},{"$":{"name":"Castlecomer","town":"Castlecomer","lat":"52.802998","lng":"-7.210228","description":"Presentation Primary School Kilkenny Street , Castlecomer","code":"L163"}},{"$":{"name":"Castledermot, I am Responsible","town":"Castledermot","lat":"52.909798","lng":"-6.837021","description":"Castledermot Community Centre , Castledermot","code":"L401"}},{"$":{"name":"Castlegregory","town":"Castlegregory","lat":"52.2557310","lng":"-10.0172064","description":"Health Centre West End , Castlegregory","code":"M95"}},{"$":{"name":"Castleisland","town":"Castleisland","lat":"52.2379347","lng":"-9.4697255","description":"Back of the Church Presentation Convent , Castleisland","code":"M96"}},{"$":{"name":"Castleknock","town":"Dublin-N","lat":"53.374208","lng":"-6.363356","description":"Castleknock Parish Centre Opp. Church of Ireland , Castleknock ","code":"L280"}},{"$":{"name":"Castleknock SP","town":"Dublin-N","lat":"53.377201","lng":"-6.376941","description":"Community Centre (beside Church) , Laurel Lodge   ","code":"L342"}},{"$":{"name":"Castlemahon","town":"Castlemahon","lat":"52.4283617","lng":"-9.0091987","description":"Public Hall Main Street , Castlemahon ","code":"M119"}},{"$":{"name":"Castlerea","town":"Castlerea","lat":"53.764391","lng":"-8.488977","description":"Castlerea Community Playschool Social Service Centre St. Patrick's Street , Castlerea","code":"C78"}},{"$":{"name":"Castletownbere ","town":"Castletownbere ","lat":"51.6503998","lng":"-9.9141810","description":"Day Care Centre Hospital Grounds St. Josephs Hospital , Castletownbere","code":"M36"}},{"$":{"name":"Castlewellan","town":"Castlewellan","lat":"54.256831","lng":"-5.945316","description":"Kilmegan Centre Main Street  Castlewellan , BT31 9JR ","code":"U113"}},{"$":{"name":"Cavan, Lodge","town":"Cavan","lat":"54.011148","lng":"-7.35157","description":"St. Patrick's Pastoral Centre Cullies , Cavan","code":"U59"}},{"$":{"name":"Cavan, Primary Purpose","town":"Cavan","lat":"53.989417","lng":"-7.362117","description":"10 Waterside  River Street , Cavan Town","code":"U245"}},{"$":{"name":"Celbridge, Working with Others","town":"Celbridge","lat":"53.3401","lng":"-6.538944","description":"Aras Stonehouse Main Street , Celbridge","code":"L397"}},{"$":{"name":"Chapeltown, Homecomer's Group","town":"Chapeltown","lat":"54.284494","lng":"-5.588179","description":"Dunsford Old School Chapeltown , Dunsford","code":"U263"}},{"$":{"name":"Charlestown","town":"Charlestown","lat":"53.9635224","lng":"-8.7919505","description":"Charlestown Health Centre Barrick Street , Charlestown","code":"C59"}},{"$":{"name":"Charleville","town":"Charleville","lat":"52.356155","lng":"-8.685379","description":"The Bungalow Unit 2 Convent Grounds , Charleville","code":"M37"}},{"$":{"name":"Church Group","town":"Ennistymon","lat":"52.939276","lng":"-9.295764","description":"The Sacristy Rear of Church , Ennistymon","code":"M271"}},{"$":{"name":"Church Street","town":"Dublin-N","lat":"53.3483689","lng":"-6.2765133","description":"Bow Street Day Centre Rear of Church Street , Bow Street ","code":"L29"}},{"$":{"name":"Churchtown School Group","town":"Dublin-S","lat":"53.293536","lng":"-6.268827","description":"Good Shepherd National School (Opp. Homebase Garden Ctr.) Whitehall Road , Churchtown","code":"L80"}},{"$":{"name":"Churchtown, Church Group","town":"Dublin-S","lat":"53.293595","lng":"-6.261480","description":"Good Shepherd Community Centre (Rear Good Shepherd Church)  Nutgrove Ave. , Churchtown","code":"L81"}},{"$":{"name":"Clane","town":"Clane","lat":"53.2914018","lng":"-6.6888656","description":"Kare Centre (Old School) Dublin Road , Clane","code":"L148"}},{"$":{"name":"Clara","town":"Clara","lat":"53.344326","lng":"-7.613525","description":"Day Care Centre The Green , Clara ","code":"L299"}},{"$":{"name":"Clare Island","town":"Clare Island","lat":"53.8019956","lng":"-10.0246085","description":"The Creche Kill , Clare Island ","code":"C60"}},{"$":{"name":"Clarecastle","town":"Clarecastle","lat":"52.8142664","lng":"-8.9649422","description":"(Upstairs) Abbey Hall Barrack Street , Clarecastle","code":"M2"}},{"$":{"name":"Claregalway","town":"Claregalway","lat":"53.3419652","lng":"-8.9458214","description":"Mortuary Chapel (behind Church) , Claregalway","code":"C133"}},{"$":{"name":"Claremorris","town":"Claremorris","lat":"53.721409","lng":"-8.997974","description":"Curam Centre Church Grounds Dalton Street , Claremorris","code":"C61"}},{"$":{"name":"Clarinbridge","town":"Clarinbridge","lat":"53.2293405","lng":"-8.8814164","description":"Suimneas Parish Office Clarenbridge Church , Clarenbridge","code":"C136"}},{"$":{"name":"Clifden","town":"Clifden","lat":"53.4891262","lng":"-10.0202686","description":"Day Care Centre Fatima Hospital , Clifden ","code":"C9"}},{"$":{"name":"Clogheen, Unity","town":"Clogheen","lat":"52.276764","lng":"-7.994753","description":"Reading Room Next Door to St Paul's Community Centre Main Street , Clogheen","code":"M151"}},{"$":{"name":"Clonakilty","town":"Clonakilty","lat":"51.6208666","lng":"-8.8942558","description":"Mount Carmel Hospital , Clonakilty","code":"M38"}},{"$":{"name":"Clondalkin","town":"Dublin-S","lat":"53.323587","lng":"-6.380053","description":"Parish Hall Church of the Presentation , Knockmitten ","code":"L83"}},{"$":{"name":"Clondalkin, Tower","town":"Dublin-S","lat":"53.3212892","lng":"-6.3946154","description":"St. John's School Tower Road , Clondalkin","code":"L84"}},{"$":{"name":"Clondalkin, Tus Nua ","town":"Dublin-S","lat":"53.322178","lng":"-6.409873","description":"Tus Nua Portacabin New Nangor Road , Clondalkin","code":"L405"}},{"$":{"name":"Clonmel, Big Book","town":"Clonmel","lat":"52.3556136","lng":"-7.6984216","description":"\"Roseville\" Loretto Convent Coleville Road , Clonmel","code":"M154"}},{"$":{"name":"Clonmel, Fethard Road","town":"Clonmel","lat":"52.363973","lng":"-7.699203","description":"Hall at the Back of  Church of The Resurrection Fethard Road , Clonmel  ","code":"M205"}},{"$":{"name":"Clonmel, Irishtown","town":"Clonmel","lat":"52.3556136","lng":"-7.6984216","description":"1st Floor St. Mary's Parish Hall (First Floor) Irishtown , Clonmel","code":"M156"}},{"$":{"name":"Clonmel, Morton Street","town":"Clonmel","lat":"52.3556136","lng":"-7.6984216","description":"Day Care Centre  Irishtown , Clonmel","code":"M155"}},{"$":{"name":"Clonmel, Morton Street","town":"Clonmel","lat":"52.3556136","lng":"-7.6984216","description":"Coolgraney House Western Road , Clonmel","code":"M152"}},{"$":{"name":"Clonshaugh, Priorswood House Gp","town":"Dublin-N","lat":"53.403258","lng":"-6.210752","description":"Priorswood House , Clonshaugh Avenue ","code":"L31"}},{"$":{"name":"Clonsilla","town":"Dublin-N","lat":"53.383071","lng":"-6.410134","description":"Lohunda  Lodge , Clonsilla Road  ","code":"L30"}},{"$":{"name":"Clonskeagh Vergemount","town":"Dublin-S","lat":"53.315701","lng":"-6.238837","description":"Vergemount Clinic Clonskea Hospital , Clonskea","code":"L86"}},{"$":{"name":"Clontarf","town":"Dublin-N","lat":"53.363793","lng":"-6.217146","description":"St. Anthony's House Rear of St. Anthony's Church St. Lawrence Road , Clontarf","code":"L33"}},{"$":{"name":"Clontarf Hospital Group","town":"Dublin-N","lat":"53.366488","lng":"-6.201407","description":"Clontarf Hospital  Blackheath Park Castle Avenue , Clontarf","code":"L32"}},{"$":{"name":"Cloonamahon","town":"Cloonamahon","lat":"54.154500","lng":"-8.484310","description":"Rehab Centre Boyle Road (N4) , Collooney","code":"C170"}},{"$":{"name":"Cloughmills","town":"Cloughmills","lat":"54.996690","lng":"-6.329991","description":"Cloughmills Primary School 34 Main Street (Opp Chinese) Cloughmills , BT44 9NW","code":"U27"}},{"$":{"name":"Cloyne, Serenity","town":"Cloyne","lat":"51.8630196","lng":"-8.1189183","description":"St. Coleman's National School , Cloyne  ","code":"M241"}},{"$":{"name":"Coalisland","town":"Coalisland","lat":"54.54139","lng":"-6.704145","description":"Ozanam Centre Barrack Street Coalisland , BT71 4LS","code":"U149"}},{"$":{"name":"Cobh","town":"Cobh","lat":"51.8498307","lng":"-8.2943840","description":"Convent of Mercy Bishops Road , Cobh","code":"M40"}},{"$":{"name":"Cobh","town":"Cobh","lat":"51.8498307","lng":"-8.2943840","description":"The Parish Centre , Cobh","code":"M39"}},{"$":{"name":"Coleraine West","town":"Coleraine","lat":"55.130288","lng":"-6.677209","description":"St. John's Clubhouse Killowen Street Coleraine , BT51 3DD","code":"U67"}},{"$":{"name":"Collon, Mellifont Abbey","town":"Collon","lat":"53.763960","lng":"-6.471269","description":"Teach Raigheach  Starinagh , Collon","code":"L189"}},{"$":{"name":"Collooney","town":"Collooney","lat":"54.185947","lng":"-8.489582","description":"Health Centre Main Street , Colloney","code":"C86"}},{"$":{"name":"Convoy","town":"Convoy","lat":"54.858624","lng":"-7.658534","description":"Unit 5D Convoy Enterprise Centre , Convoy ","code":"U224"}},{"$":{"name":"Cookstown","town":"Cookstown","lat":"54.646803","lng":"-6.756437","description":"Day Centre Westland Road Cookstown , BT80 8BX","code":"U150"}},{"$":{"name":"Coolgreany Serenity","town":"Coolgraney","lat":"52.7643987","lng":"-6.2366301","description":"May Byrne Trust Centre Main Street , Coolgraney   ","code":"L319"}},{"$":{"name":"Coolock Health Centre ","town":"Dublin-N","lat":"53.395271","lng":"-6.216907","description":"Health Centre Cromcastle Road , Coolock ","code":"L34"}},{"$":{"name":"Coolock Village","town":"Dublin-N","lat":"53.388334","lng":"-6.200719","description":"Coolock Parish Centre Old Church , Coolock Village ","code":"L35"}},{"$":{"name":"Cootehill","town":"Cootehill","lat":"54.074917","lng":"-7.084194","description":"Community Care Services Cavan Road , Cootehill","code":"U61"}},{"$":{"name":"Corduff There is a Solution Group","town":"Dublin-N","lat":"53.399455","lng":"-6.377908","description":"Corduff Community  Resource Centre Blackcourt Road , Corduff ","code":"L308"}},{"$":{"name":"Cork City ,Ardfoyle","town":"Cork","lat":"51.898426","lng":"-8.429646","description":"Our Lady of Apostles Convent Ardfoyle , Ballintemple   ","code":"M44"}},{"$":{"name":"Cork City Centre","town":"Cork ","lat":"51.8993443","lng":"-8.4801637","description":"Community Centre , Grattan St.","code":"M58"}},{"$":{"name":"Cork City,  Glen Ave. Recovery Group","town":"Cork","lat":"51.9092376","lng":"-8.4545661","description":"Youth Reach The Glen Resource Centre , Dillons Cross","code":"M253"}},{"$":{"name":"Cork City, A New Beginning","town":"Cork","lat":"51.906062","lng":"-8.4768","description":"North Presentation Convent , Gerald Griffin Street ","code":"M264"}},{"$":{"name":"Cork City, A Vision for You","town":"Cork ","lat":"51.88020","lng":"-8.50989","description":"Room 9 S.M.A.  Wilton Church , Wilton  ","code":"M217"}},{"$":{"name":"Cork City, Ballyphehane","town":"Cork","lat":"51.882872","lng":"-8.478501","description":"Church of the Assumption , Ballyphehane","code":"M42"}},{"$":{"name":"Cork City, Big Book Discussion","town":"Cork","lat":"51.8970000","lng":"-8.4100000","description":"Bessboro Centre Bessboro , Blackrock","code":"m239"}},{"$":{"name":"Cork City, Bishopstown Dennehy's Cross Group","town":"Cork","lat":"51.878117","lng":"-8.51228","description":"Wilton Park House , Bishopstown  ","code":"M61"}},{"$":{"name":"Cork City, Blackpool","town":"Cork","lat":"51.910933","lng":"-8.474368","description":"Community Centre , Blackpool","code":"M43"}},{"$":{"name":"Cork City, Blackrock Road, St. Francis","town":"Cork","lat":"51.894593","lng":"-8.448068","description":"St. Francis Convent Opposite SMA Church , Blackrock Road ","code":"M45"}},{"$":{"name":"Cork City, Curraheen","town":"Cork ","lat":"51.87708","lng":"-8.53102","description":"Church of The Real Presence Curraheen Road , Bishopstown","code":"M30"}},{"$":{"name":"Cork City, Douglas","town":"Cork","lat":"51.87892","lng":"-8.443251","description":"Douglas Community School Clarmont Ave , Douglas ","code":"M48"}},{"$":{"name":"Cork City, Farranree","town":"Cork","lat":"51.913539","lng":"-8.484933","description":"Farranree Church , Farranree ","code":"M49"}},{"$":{"name":"Cork City, Frankfield","town":"Cork ","lat":"51.8698883","lng":"-8.4603847","description":"St. Nicholas School , Frankfield","code":"M233"}},{"$":{"name":"Cork City, Grange","town":"Cork ","lat":"51.866104","lng":"-8.457627","description":"Grange Church , Grange ","code":"M62"}},{"$":{"name":"Cork City, Gurranabraher","town":"Cork","lat":"51.904036","lng":"-8.491530","description":"Church of the Ascension , Gurranabraher","code":"M52"}},{"$":{"name":"Cork City, Knocknaheeny","town":"Cork","lat":"51.9067243","lng":"-8.5030853","description":"Sacristy St. Mary's on the Hill Church , Knocknaheeny","code":"M53"}},{"$":{"name":"Cork City, Live & Let Live","town":"Cork","lat":"51.897953","lng":"-8.477229","description":"Floor 1 The Other Place South Main Street , Cork City","code":"M54"}},{"$":{"name":"Cork City, O'Donovan's Road Solas Group.","town":"Cork ","lat":"51.893285","lng":"-8.489234","description":"4 Hillside , O'Donavan's Road","code":"M64"}},{"$":{"name":"Cork City, Popes Quay","town":"Cork","lat":"51.901188","lng":"-8.473599","description":"Dominican Centre Popes Quay , Cork","code":"M59"}},{"$":{"name":"Cork City, Rochestown Big Book Group","town":"Cork","lat":"51.8763663","lng":"-8.4121265","description":"St. Patricks Church , Rochestown Road","code":"M85"}},{"$":{"name":"Cork City, Rutland St. Open Public Meeting","town":"Cork","lat":"51.894267","lng":"-8.469149","description":"South Parish Community Centre , Rutland Street ","code":"M46"}},{"$":{"name":"Cork City, Rutland Street 6 O'Clock ","town":"Cork","lat":"51.894268","lng":"-8.469151","description":"Sth. Parish Community Centre , Rutland Street","code":"M41"}},{"$":{"name":"Cork City, St. Patrick's Hill","town":"Cork","lat":"51.902391","lng":"-8.469872","description":"Basement Flat 12A St. Patrick's Hill , Cork  ","code":"M50"}},{"$":{"name":"Cork City, St. Vincent's Sundays Well","town":"Cork","lat":"51.899521","lng":"-8.490405","description":"Basement St. Vincent's Church , Sundays Well","code":"M60"}},{"$":{"name":"Cork City, Trinity","town":"Cork ","lat":"51.895649","lng":"-8.471328","description":"Trinity Priory  Father Matthew Quay , Cork","code":"M63"}},{"$":{"name":"Cork City, Western Road","town":"Cork ","lat":"51.893841","lng":"-8.503332","description":"Meeting Room beside  Sacred Heart Church , Western Road","code":"M230"}},{"$":{"name":"Corofin","town":"Corofin","lat":"52.9427274","lng":"-9.0625728","description":"The Sacristy St. Bridget's Church Church Street , Corofin","code":"M4"}},{"$":{"name":"Craigavon, Seagoe","town":"Craigavon","lat":"54.435343","lng":"-6.410215","description":"Craigavon  Hospital Portadown Craigavon , BT63 5QQ","code":"U51"}},{"$":{"name":"Craughwell","town":"Craughwell","lat":"53.2256979","lng":"-8.7331357","description":"AA Meeting Room St. Michael's Hall , Craughwell","code":"C11"}},{"$":{"name":"Creeslough, Ards Group","town":"Creeslough","lat":"55.15688","lng":"-7.865717","description":"Ards Friary , Creeslough  ","code":"U183"}},{"$":{"name":"Croom","town":"Croom","lat":"52.5189490","lng":"-8.7185250","description":"The Old National School , Croom","code":"M121"}},{"$":{"name":"Crossgar","town":"Crossgar","lat":"54.392051","lng":"-5.755229","description":"Tobar Mhuire (Monastery) Downpatrick Road Crossgar  , BT30 9EA","code":"U126"}},{"$":{"name":"Crosshaven","town":"Crosshaven","lat":"51.80202","lng":"-8.29811","description":"Presentation Convent , Crosshaven","code":"M47"}},{"$":{"name":"Crossmolina","town":"Crossmolina","lat":"54.1011636","lng":"-9.3181180","description":"Cluainin Centre Ballina Street , Crossmolina","code":"C63"}},{"$":{"name":"Crumlin","town":"Crumlin","lat":"54.619779","lng":"-6.224184","description":"St. John's Hall 5 Lurgan Road Crumlin , BT29 4QA","code":"U220"}},{"$":{"name":"Crumlin, Cashel Road Group","town":"Dublin-S","lat":"53.322316","lng":"-6.306504","description":"Crumlin Hall ARC Centre 101 Cashel Road , Crumlin ","code":"L89"}},{"$":{"name":"Crusheen","town":"Crusheen","lat":"52.938539","lng":"-8.900417","description":"New Parish Centre Behind RC Church , Crusheen","code":"M269"}},{"$":{"name":"Curragh ","town":"Curragh Camp","lat":"53.1343301","lng":"-6.8286299","description":"Girls National School , Curragh Camp","code":"L149"}},{"$":{"name":"Curry","town":"Curry","lat":"54.001924","lng":"-8.774487","description":"St. Theresa's Funeral Home Curry Village , Curry ","code":"C87"}},{"$":{"name":"Dalkey Gp.","town":"Dublin-S","lat":"53.281588","lng":"-6.103136","description":"St. Patrick's School Harbour Road , Dalkey","code":"L90"}},{"$":{"name":"Darndale ","town":"Dublin-N","lat":"53.400718","lng":"-6.192759","description":"New Life Centre (Side entrance of Church) Darndale/Belcamp , Darndale","code":"L376"}},{"$":{"name":"Delvin","town":"Delvin","lat":"53.614272","lng":"-7.091981","description":"Rear of Parochial House , Delvin","code":"L305"}},{"$":{"name":"Derry, Clooney","town":"Derry","lat":"54.99566","lng":"-7.308584","description":"Melrose Centre Rossdowney House Glendermott Road Derry , BT47 6BG","code":"U202"}},{"$":{"name":"Derry, Creggan Group","town":"Derry","lat":"54.997581","lng":"-7.344843","description":"The Old Clinic Fanad Drive Creggan  , BT48 9QF","code":"U198"}},{"$":{"name":"Derry, First Derry ","town":"Derry","lat":"54.99566","lng":"-7.308585","description":"Rossdowney House Glendermott Road Waterside , BT47 6BG","code":"U75"}},{"$":{"name":"Derry, Foyle Group","town":"Derry","lat":"54.994573","lng":"-7.328406","description":"32 Dove House Meenan Square Bogside Derry  , BT48 9EX","code":"U70"}},{"$":{"name":"Derry, Galliagh Group","town":"Derry","lat":"55.030798","lng":"-7.31253","description":"2 Old School Lane Shantallow Derry City , BT48 8SP","code":"U71"}},{"$":{"name":"Derry, Leafair","town":"Derry","lat":"55.032071","lng":"-7.317109","description":"Skeoge House 60A Leafair Park , BT48 8JT ","code":"U231"}},{"$":{"name":"Derry, Queen Street","town":"Derry","lat":"55.001298","lng":"-7.323976","description":"12 Queen Street Derry  , BT48 7EG ","code":"U72"}},{"$":{"name":"Derry, Shantallow","town":"Derry","lat":"55.024815","lng":"-7.308184","description":"Parochial House White Chapel Derry , BT48 8EU","code":"U230"}},{"$":{"name":"Derry, Springtown","town":"Derry","lat":"55.018314","lng":"-7.343341","description":"The Upper Room Holy Family Church Ballymagroarty , BT48 0AZ","code":"U190"}},{"$":{"name":"Derrybeg Thursday Gp.","town":"Derrybeg","lat":"55.069363","lng":"-8.298305","description":"Derrybeg Pastoral Centre MABS Centre , Derrybeg ","code":"U97"}},{"$":{"name":"Derrybeg, Old Chapel","town":"Derrybeg","lat":"55.072434","lng":"-8.296357","description":"Sacristy Old Chapel  Derrybeg , Derrybeg PO","code":"u229"}},{"$":{"name":"Dingle","town":"Dingle","lat":"52.145031","lng":"-10.275221","description":"Dingle Health Centre Farran Flaherty , Dingle","code":"M98"}},{"$":{"name":"Dingle Day Meeting","town":"Dingle","lat":"52.139913","lng":"-10.266053","description":"C.B.S.  John Street , Dingle","code":"M266"}},{"$":{"name":"Dingle, Siócháin","town":"Ballydavid / Dingle","lat":"52.200374","lng":"-10.357854","description":"Teach Siomsa Carraig  , Dingle","code":"M227"}},{"$":{"name":"Dollymount, Manresa Group ","town":"Dublin-N","lat":"53.367045","lng":"-6.178265","description":"Manresa Jesuit Centre of Spirituality 426 Clontarf Road , Dollymount","code":"L334"}},{"$":{"name":"Donaghadee","town":"Donaghadee","lat":"54.639465","lng":"-5.535816","description":"The Pidgeon Club 24A Killaughey Road Donaghadee , BT21 OBL","code":"U114"}},{"$":{"name":"Donegal","town":"Donegal","lat":"54.655879","lng":"-8.099141","description":"Donegal Day Centre Donegal Hospital Upper Main Street , Donegal Town","code":"U92"}},{"$":{"name":"Doneraile","town":"Doneraile","lat":"52.218388","lng":"-8.591137","description":"Girls National School Convent Road , Doneraile","code":"M65"}},{"$":{"name":"Donnybrook","town":"Dublin-S","lat":"53.319008","lng":"-6.230181","description":"Rear Donnybrook Church , Donnybrook","code":"L92"}},{"$":{"name":"Donoughmore","town":"Donoughmore","lat":"52.0060802","lng":"-8.7285399","description":"The Presbytery Stuake , Donoughmore","code":"M66"}},{"$":{"name":"Doohamlet","town":"Doohamlet","lat":"54.128634","lng":"-6.82644","description":"Doohamlet Community Centre , Doohamlet","code":"U186"}},{"$":{"name":"Doolin","town":"Doolin","lat":"53.0160012","lng":"-9.3775775","description":"Doolin National School , Doolin","code":"M206"}},{"$":{"name":"Downpatrick","town":"Downpatrick","lat":"54.319979","lng":"-5.701514","description":"Trojan Horse  Oriel Drive New Model Farm Downpatrick , BT30 6QW","code":"U115"}},{"$":{"name":"Drimnagh","town":"Dublin-S","lat":"53.329755","lng":"-6.320577","description":"Mother McCauley Centre Curlew Road , Drimnagh","code":"L93"}},{"$":{"name":"Drogheda, Akron","town":"Drogheda","lat":"53.7167718","lng":"-6.3543536","description":"St. Joseph's Homeless Aid North Strand , Drogheda ","code":"L310"}},{"$":{"name":"Drogheda, Bill W. Group","town":"Drogheda","lat":"53.716147","lng":"-6.350932","description":"St. Peter's Church of Ireland Community Hall , St. Peters Street ","code":"L341"}},{"$":{"name":"Drogheda, Dublin Road","town":"Drogheda","lat":"53.713181","lng":"-6.342201","description":"Teach Mhuire Dublin Road , Drogheda","code":"L193"}},{"$":{"name":"Drogheda, Let it begin with me Group.","town":"Drogheda","lat":"53.719136","lng":"-6.343467","description":"Conference Room The Cottage Hospital Scarlet Street , Drogheda","code":"L192"}},{"$":{"name":"Drogheda, Reflections","town":"Drogheda","lat":"53.716146","lng":"-6.350931","description":"St. Peters Church of Ireland Community Hall , St. Peter's Street ","code":"L345"}},{"$":{"name":"Dromintee","town":"Newry","lat":"54.089025","lng":"-6.388421","description":"Community Centre Dromintee Forkhill Newry , BT35 8JB ","code":"U42"}},{"$":{"name":"Dromore West","town":"Dromore West","lat":"54.246848","lng":"-8.862383","description":"McGee Hall , Dromore West","code":"C88"}},{"$":{"name":"Dublin City,  Kindergarden Group","town":"Dublin-C","lat":"53.3544753","lng":"-6.2491066","description":"Downstairs Killarney Court , Killarney Street ","code":"L333"}},{"$":{"name":"Dublin City, Abbey Street Downtown Group","town":"Dublin-C","lat":"53.348502","lng":"-6.259176","description":"Dublin Central Mission , Lower Abbey Street ","code":"L7"}},{"$":{"name":"Dublin City, Aungier Street Back to Basics Group","town":"Dublin-C","lat":"53.339744","lng":"-6.265863","description":"Carmelite Community Centre , Aungier Street  ","code":"L335"}},{"$":{"name":"Dublin City, Aungier Street Rainbow Recovery Group","town":"Dublin-C","lat":"53.339837","lng":"-6.265922","description":"Carmelite Commuity Centre 56 Aungier Street , Dublin","code":"L339"}},{"$":{"name":"Dublin City, Back Lane ","town":"Dublin-C","lat":"53.3425152","lng":"-6.2732250","description":"St. Vincent De Paul Shelter , Back Lane  ","code":"L9"}},{"$":{"name":"Dublin City, Capel Street L.G.B.T. Group","town":"Dublin-C","lat":"53.3441040","lng":"-6.2674937","description":"Outhouse 105 Capel Street , Dublin ","code":"L276"}},{"$":{"name":"Dublin City, Dorset Street,Horyzont Group","town":"Dublin-C","lat":"53.353446","lng":"-6.267732","description":"St. Savior's Priory , 9-11 Upper Dorset Street ","code":"L394"}},{"$":{"name":"Dublin City, Eustace St. Live & Let Live Group","town":"Dublin-C","lat":"53.3449205","lng":"-6.2648362","description":"Friends Meeting House , Eustace Street ","code":"L12"}},{"$":{"name":"Dublin City, High St. AZYL Group","town":"Dublin-C","lat":"53.344147","lng":"-6.273354","description":"The Crypt St. Audeons Church 14 High Street , Dublin","code":"L344"}},{"$":{"name":"Dublin City, Longford Street Little, Sala","town":"Dublin-C","lat":"53.340652","lng":"-6.26501","description":"Salvation Army Hall York House , 1 Longford Street Little ","code":"L385"}},{"$":{"name":"Dublin City, Lr. Gardiner St. New Hope Gp.","town":"Dublin-C","lat":"53.351192","lng":"-6.254804","description":"Teach Mhuire 38-39 Lower Gardiner Street , Dublin ","code":"L11"}},{"$":{"name":"Dublin City, Merchants Quay Gp. ","town":"Dublin-C","lat":"53.345063","lng":"-6.274985","description":"Merchants Quay Ireland Riverbank , Merchants Quay","code":"L399"}},{"$":{"name":"Dublin City, Molesworth Lane, Molesworth Group","town":"Dublin-C","lat":"53.340774","lng":"-6.257350","description":"Molesworth Hall Molesworth Lane Off Molesworth Street , Dublin ","code":"L10"}},{"$":{"name":"Dublin City, Nth Frederick Street Findlaters Group","town":"Dublin-C","lat":"53.354714","lng":"-6.263908","description":"Findlaters Church , North Frederick Street","code":"L8"}},{"$":{"name":"Dublin City, Pearse Street Group","town":"Dublin-C","lat":"53.342767","lng":"-6.242245","description":"St. Andrew's Resource Centre , Pearse Street ","code":"L144"}},{"$":{"name":"Dublin City, Sherrard Street Unity Group ","town":"Dublin-C","lat":"53.358761","lng":"-6.259646","description":"The Basement 28 Upper Sherrard Street , Dublin ","code":"L15"}},{"$":{"name":"Duleek, First Step","town":"Duleek","lat":"53.655537","lng":"-6.416874","description":"Prayer Room Rear Of Parochial House Main Street , Duleek ","code":"L392"}},{"$":{"name":"Dun Laoghaire Boylan Group","town":"Dublin-S","lat":"53.294169","lng":"-6.136503","description":"Hanley Centre Eblana Avenue , Dun Laoghaire","code":"L357"}},{"$":{"name":"Dun Laoghaire Eblana Group","town":"Dublin-S","lat":"53.294169","lng":"-6.136503","description":"Hanley Centre Eblana Ave. , Dun Laoghaire","code":"L95"}},{"$":{"name":"Dun Laoghaire Gp. Monkstown","town":"Dublin-S","lat":"53.293791","lng":"-6.153492","description":"The Crypt Rear of Monkstown Parish Church Monkstown Road , Monkstown  ","code":"L114"}},{"$":{"name":"Dun Laoghaire Harbour Group","town":"Dublin-S","lat":"53.294170","lng":"-6.136504","description":"Hanley Centre Eblana Ave , Dun Laoghaire","code":"L100"}},{"$":{"name":"Dun Laoghaire Library Road Group","town":"Dublin-S","lat":"53.290238","lng":"-6.129175","description":"Hall Rear of Church of Ireland Anglican Church Park Road , Dun Laoghaire ","code":"L296"}},{"$":{"name":"Dun Laoghaire Tivoli Group","town":"Dublin-S","lat":"53.290800","lng":"-6.135624","description":"Methodist Church Hall Northumberland Ave. , Dun Laoghaire","code":"L142"}},{"$":{"name":"Dunboyne","town":"Dunboyne","lat":"53.419552","lng":"-6.475207","description":"Old School , Dunboyne","code":"L201"}},{"$":{"name":"Dundalk, 5th Tradition","town":"Dundalk","lat":"53.9999772","lng":"-6.4037354","description":"Hotel Imperial Conference Room Park Street , Dundalk","code":"L194"}},{"$":{"name":"Dundalk, Mount Oliver","town":"Dundalk","lat":"54.016393","lng":"-6.323662","description":"Old School House Belurgan , Dundalk","code":"L196"}},{"$":{"name":"Dundalk, Muirhevnamore","town":"Dundalk","lat":"53.991158","lng":"-6.386093","description":"Muirhevnamor  Community Centre , Dundalk  ","code":"L368"}},{"$":{"name":"Dundalk, Quay Street Group ","town":"Dundalk","lat":"54.007138","lng":"-6.383507","description":"Legion of Mary Hall Quay Street , Dundalk  ","code":"L195"}},{"$":{"name":"Dundrum","town":"Dublin-S","lat":"53.288200","lng":"-6.240205","description":"Dom Marmiom House C/o Dun Marmion Centre Through Car Park Sandyford Road , Dundrum  ","code":"L91"}},{"$":{"name":"Dunfanaghy","town":"Dunfanaghy","lat":"55.1819","lng":"-7.971472","description":"The Dispensary Pound Street , Dunfanaghy","code":"U94"}},{"$":{"name":"Dungannon, Third Legacy","town":"Dungannon","lat":"54.505041","lng":"-6.770341","description":"Unit 3 Castleview Buildings Feeny's Lane Dungannon , BT70 1TX ","code":"U154"}},{"$":{"name":"Dungarvan, Abbeyside ","town":"Dungarvan","lat":"52.090569","lng":"-7.613804","description":"Parish Centre Strandside South Abbeyside , Dungarvan","code":"M254"}},{"$":{"name":"Dungarvan, Monday Meeting Gp.","town":"Dungarvan","lat":"52.0896568","lng":"-7.6224724","description":"St. Vincent De Paul Rooms  Emmet St  , Dungarvan ","code":"M178"}},{"$":{"name":"Dungarvan, St Vincent De Paul","town":"Dungarvan","lat":"52.0896568","lng":"-7.6224724","description":"St Vincent de Paul Rooms , Dungarvan","code":"M180"}},{"$":{"name":"Dungarvan, Wed. Night Friary Gp.","town":"Dungarvan","lat":"52.0896568","lng":"-7.6224724","description":"Sacristy Friary Church , Dungarvan","code":"M179"}},{"$":{"name":"Dungiven","town":"Dungiven","lat":"54.926847","lng":"-6.923816","description":"Hands That Talk 116 Main Street Dungiven , BT47 4LD","code":"U78"}},{"$":{"name":"Dungloe","town":"Dungloe","lat":"54.952047","lng":"-8.358138","description":"Dungloe Hospital , Dungloe","code":"U93"}},{"$":{"name":"Dunlavin","town":"Dunlavin","lat":"53.058072","lng":"-6.703109","description":"Parish Centre (behind R.C. Church) , Dunlavin","code":"L312"}},{"$":{"name":"Dunshaughlin","town":"Dunshaughlin","lat":"53.508998","lng":"-6.539901","description":"Dunshaughlin Scoil Seachnaill Main Street , Dunshaughlin","code":"L202"}},{"$":{"name":"Durrow","town":"Durrow","lat":"52.8445207","lng":"-7.3935077","description":"Fás Centre Ballyragget Road , Durrow","code":"L378"}},{"$":{"name":"Easkey","town":"Easkey","lat":"54.2855165","lng":"-8.9602612","description":"Easkey Health Centre , Easkey","code":"C108"}},{"$":{"name":"East Wall","town":"Dublin-N","lat":"53.3527778","lng":"-6.2352778","description":"Rear St. Josephs R.C. Church Church Road , East Wall","code":"L40"}},{"$":{"name":"Edenderry ","town":"Edenderry","lat":"53.339708","lng":"-7.057393","description":"Barnardo's  Edenderry Businness Park St. Mary's Road , Edenderry","code":"L354"}},{"$":{"name":"Edenderry Big Book","town":"Edenderry","lat":"53.339754","lng":"-7.057415","description":"Barnardos  Edenderry Business Pk. Off St. Marys Road , Edenderry","code":"L292"}},{"$":{"name":"Elphin","town":"Elphin","lat":"53.8448293","lng":"-8.1922599","description":"Primary School Carrick Road , Elphin","code":"C79"}},{"$":{"name":"Ennis, Friary","town":"Ennis","lat":"52.844908","lng":"-8.981248","description":"Friary Hall Friary Car Park Francis Street , Ennis","code":"M5"}},{"$":{"name":"Ennis, Gort Road","town":"Ennis","lat":"52.858744","lng":"-8.981742","description":"Ennis Day Hospital Gort Road , Ennis ","code":"M6"}},{"$":{"name":"Ennis, Lahinch Road","town":"Ennis","lat":"52.8443498","lng":"-8.9829945","description":"Bushy Park  , Ennis  ","code":"M7"}},{"$":{"name":"Enniscorthy, Friends","town":"Enniscorthy","lat":"52.500869","lng":"-6.563741","description":"Friends Meeting House Templeshannon Quay , Enniscorthy","code":"L279"}},{"$":{"name":"Enniscorthy, Hope Group","town":"Enniscorthy","lat":"52.500870","lng":"-6.563740","description":"The Friends Meeting Place Spring Valley , Enniscorthy ","code":"L371"}},{"$":{"name":"Enniscorthy, St. Johns","town":"Enniscorthy","lat":"52.5011871","lng":"-6.5669624","description":"Day Care Centre St. John's Hospital , Enniscorthy ","code":"L241"}},{"$":{"name":"Enniscorthy, St. Senans","town":"Enniscorthy","lat":"52.5011871","lng":"-6.5669624","description":"St. Senans Hospital , Enniscorthy","code":"L242"}},{"$":{"name":"Enniscrone","town":"Enniscrone","lat":"54.2151782","lng":"-9.0888002","description":"Health Centre , Enniscrone","code":"C89"}},{"$":{"name":"Enniskerry","town":"Enniskerry","lat":"53.194204","lng":"-6.175497","description":"R.C. Church Presbytery (Door to right of  Church) , Enniskerry ","code":"L257"}},{"$":{"name":"Enniskillen, Monday Night","town":"Enniskillen","lat":"54.347041","lng":"-7.643301","description":"Aisling Cenre 37 Darling Street , BT74 7DP  ","code":"U129"}},{"$":{"name":"Enniskillen, Reflections","town":"Enniskillen","lat":"54.346872","lng":"-7.64263","description":"Aisling Centre 37 Darling Street Enniskillen  , BT74 7DP ","code":"U232"}},{"$":{"name":"Ennistymon","town":"Ennistymon","lat":"52.9384584","lng":"-9.2932270","description":"Vocational School The Square , Ennistymon","code":"M8"}},{"$":{"name":"Fairview St. Vincents Hospital Group","town":"Dublin-N","lat":"53.365144","lng":"-6.244000","description":"St. Vincents Hospital Convent Ave. Richmond Road , Fairview ","code":"L41"}},{"$":{"name":"Ferbane","town":"Ferbane","lat":"53.2719595","lng":"-7.8275388","description":"Heritage Centre Main Street , Ferbane","code":"L221"}},{"$":{"name":"Ferbane Big Book","town":"Ferbane","lat":"53.27135","lng":"-7.830607","description":"Parochial House (rear entrance) , Ferbane","code":"L266"}},{"$":{"name":"Fermoy","town":"Fermoy","lat":"52.1398416","lng":"-8.2665293","description":"Loretto Convent College Road , Fermoy","code":"M69"}},{"$":{"name":"Fethard","town":"Fethard","lat":"52.4656911","lng":"-7.6957373","description":"Fr. Tirry Centre Barrack Street , Fethard","code":"M207"}},{"$":{"name":"Fethard on Sea, Poulfur ","town":"Fethard on Sea","lat":"52.206874","lng":"-6.857802","description":"Parochial House  Poulfur  , Fethard On Sea","code":"L243"}},{"$":{"name":"Finglas","town":"Dublin-N","lat":"53.382676","lng":"-6.300251","description":"St. Helena's Resource Centre St. Helena's Road , Finglas South","code":"L42"}},{"$":{"name":"Fintona","town":"Fintona","lat":"54.493647","lng":"-7.324944","description":"Pastoral Centre Tempo Road Fintona , BT78 2AQ","code":"U241"}},{"$":{"name":"Foxford 1, Hope House Sunday Gp. ","town":"Foxford","lat":"53.98","lng":"-9.11","description":"Hope House , Foxford","code":"C171"}},{"$":{"name":"Foxford No. 2","town":"Foxford","lat":"53.98","lng":"-9.11","description":"Hope House , Foxford ","code":"C65"}},{"$":{"name":"Foxrock","town":"Dublin-S","lat":"53.274519","lng":"-6.173190","description":"Community Centre (Rear of Foxrock Church) , Foxrock","code":"L98"}},{"$":{"name":"Frenchpark","town":"Frenchpark","lat":"53.8699506","lng":"-8.4056402","description":"Back of Parochial Hall , Frenchpark","code":"C80"}},{"$":{"name":"Galway City,  Croi Nua ","town":"Galway","lat":"53.267716","lng":"-9.0746","description":"Croi Nua  Rosary Lane , Taylor's Hill","code":"C139"}},{"$":{"name":"Galway City, Ashe Road, Shantalla Seekers","town":"Galway","lat":"53.2754978","lng":"-9.0727770","description":"St. Joseph's Community Centre , Ashe Road ","code":"C141"}},{"$":{"name":"Galway City, Bohermore","town":"Galway","lat":"53.2798139","lng":"-9.0433107","description":"Bohermore Community Centre , Bohermore","code":"C147"}},{"$":{"name":"Galway City, Bohermore Step Gp.","town":"Galway","lat":"53.2798139","lng":"-9.0433107","description":"Community Centre Cookes Terrace , Bohermore","code":"C157"}},{"$":{"name":"Galway City, Doughiska","town":"Galway","lat":"53.286378","lng":"-8.987476","description":"Primary Care Centre , Doughiska","code":"C169"}},{"$":{"name":"Galway City, Knocknacarra ","town":"Galway","lat":"53.262880","lng":"-9.118419","description":"Knocknacarra Church Ballymoneen Road , Knocknacarra","code":"C105"}},{"$":{"name":"Galway City, Mervue Church","town":"Galway ","lat":"53.2835503","lng":"-9.0179776","description":"Room 4 Old Community Centre Mervue Church , Mervue","code":"C20"}},{"$":{"name":"Galway City, Mervue, Primary Purpose Group","town":"Galway","lat":"53.282263","lng":"-9.016903","description":"C/o Cope Walter Macken Place , Mervue ","code":"C159"}},{"$":{"name":"Galway City, Newtownsmith Abbey Hall","town":"Galway","lat":"53.2747950","lng":"-9.0548550","description":"Galway Diocesan Pastoral Centre , Newtownsmith ","code":"C138"}},{"$":{"name":"Galway City, Renmore","town":"Galway ","lat":"53.279796","lng":"-9.026315","description":"Holy Family School Dublin Road , Renmore   ","code":"C19"}},{"$":{"name":"Galway City, Renmore, Holy Family Gp. 2","town":"Galway","lat":"53.279715","lng":"-9.02625","description":"Conference Rooms Brothers of Charity Woodlands Dublin Road , Renmore","code":"C13"}},{"$":{"name":"Galway City, Salthill","town":"Galway","lat":"53.260702","lng":"-9.07593","description":"Back Room Church of Christ The King , Salthill","code":"C35"}},{"$":{"name":"Galway City, Salthill, Sun. Night","town":"Galway","lat":"53.2641827","lng":"-9.0759274","description":"Christ the King R.C. Church , Salthill","code":"C14"}},{"$":{"name":"Galway City, St. Augustine St. Ozanam II  Room 7","town":"Galway","lat":"53.271763","lng":"-9.051981","description":"Ozanam House , St. Augustine St. ","code":"C16"}},{"$":{"name":"Galway City, St. Augustine Street Ozanam Group 1","town":"Galway","lat":"53.2718001","lng":"-9.0519064","description":"Ozanam House , St. Augustine Street","code":"C15"}},{"$":{"name":"Galway City, St. Augustine Street Ozanam II","town":"Galway","lat":"53.271824","lng":"-9.051919","description":"Ozanam House Room 7 , St. Augustine St.  ","code":"C17"}},{"$":{"name":"Galway City, St. Columbanus Iskierka Group","town":"Galway","lat":"53.2737969","lng":"-9.0517799","description":"Chapel Common Room Chapel of St. Columbanus adjacent to  , N.U.I. Galway","code":"C158"}},{"$":{"name":"Galway City, St. Columbanus, Serenity Group","town":"Galway","lat":"53.2779740","lng":"-9.0601050","description":"Chapel Common Room Chapel of St. Columbanus adjacent to  , National University Galway","code":"C99"}},{"$":{"name":"Galway City, Taylor's Hill, Croi Nua (Monday Gp)","town":"Galway","lat":"53.267580","lng":"-9.074546","description":"Croi Nua Centre Rosary Lane , Taylor's Hill ","code":"C120"}},{"$":{"name":"Geesala","town":"Geesala","lat":"54.112458","lng":"-9.905037","description":"Health Centre , Geesala  ","code":"C151"}},{"$":{"name":"Gilford","town":"Gilford","lat":"54.373423","lng":"-6.367352","description":"Community Centre 5 Stramore Road Gilford , BT63 6HL","code":"U251"}},{"$":{"name":"Glanmire, Riverstown","town":"Glanmire","lat":"51.928018","lng":"-8.396747","description":"RiverstownCommunity Centre Riverstown , Glanmire ","code":"M83"}},{"$":{"name":"Glasnevin","town":"Dublin-N","lat":"53.372845","lng":"-6.268258","description":"Church of Our Lady  Of Dolours Botanic Avenue , Glasnevin","code":"L43"}},{"$":{"name":"Glasson","town":"Glasson","lat":"53.469641","lng":"-7.864242","description":"Glasson Community  and Heritage Centre , Glasson","code":"L283"}},{"$":{"name":"Glasthule","town":"Dublin-S","lat":"53.288083","lng":"-6.125028","description":"Parish Centre St. Joseph's Church Summerhill Road , Glasthule","code":"L347"}},{"$":{"name":"Glenamaddy","town":"Glenamaddy","lat":"53.6082934","lng":"-8.56","description":"Social Service Centre , Glenamaddy","code":"C21"}},{"$":{"name":"Glenamoy","town":"Glenamoy","lat":"54.241156","lng":"-9.688268","description":"Glenamoy Health Centre , Glenamoy ","code":"C66"}},{"$":{"name":"Glenamoy No 2","town":"Glenamoy","lat":"54.2336883","lng":"-9.6552747","description":"Health Centre , Glenamoy ","code":"C165"}},{"$":{"name":"Glenbeigh","town":"Glenbeigh","lat":"52.0543111","lng":"-9.9467451","description":"Glenbeigh National School , Glenbeigh","code":"M211"}},{"$":{"name":"Glenbrien","town":"Glenbrien","lat":"52.464978","lng":"-6.499915","description":"Holy Family  School Glenbrien , Enniscorthy ","code":"L320"}},{"$":{"name":"Glenealy","town":"Glenealy","lat":"52.968760","lng":"-6.144077","description":"Community Hall , Glenealy","code":"L258"}},{"$":{"name":"Glengarriff","town":"Glengarriff","lat":"51.7493304","lng":"-9.5504311","description":"Parochial Hall , Glengarriff","code":"M70"}},{"$":{"name":"Gorey","town":"Gorey","lat":"52.674343","lng":"-6.298256","description":"Christ Church Old  School Charlotte Row , Gorey","code":"L244"}},{"$":{"name":"Gort","town":"Gort","lat":"53.0683100","lng":"-8.8180895","description":"Social Services Centre Queen Street , Gort","code":"C22"}},{"$":{"name":"Gort Sunday Morning","town":"Gort","lat":"53.065319","lng":"-8.818846","description":"Orchard Centre Queen Street (Beside Public Library) , Gort","code":"C137"}},{"$":{"name":"Graignamanagh","town":"Graignamanagh","lat":"52.542198","lng":"-6.956191","description":"Health Centre Tinnahinch , Graignamanagh","code":"L285"}},{"$":{"name":"Graiguecullen","town":"Graiguecullen","lat":"52.8365526","lng":"-6.9398363","description":"Sacred Heart Hall Chaff Street , Graiguecullen","code":"L352"}},{"$":{"name":"Granard","town":"Granard","lat":"53.7761945","lng":"-7.4956739","description":"Michael National School Barrack Street , Granard","code":"L183"}},{"$":{"name":"Grange","town":"Grange","lat":"54.393115","lng":"-8.526045","description":"National School , Grange","code":"C174"}},{"$":{"name":"Great Strand Street Exchange House Group","town":"Dublin-C","lat":"53.346763","lng":"-6.266351","description":"Exchange House , Great Strand Street ","code":"L377"}},{"$":{"name":"Greencastle, Country Group","town":"Greencastle","lat":"54.689886","lng":"-7.079629","description":"Owenkillew Credit Union Office 280 Crockanboy Road Greencastle , BT79 7QP","code":"U156"}},{"$":{"name":"Greystones","town":"Greystones","lat":"53.146544","lng":"-6.061639","description":"St. David's Secondary School Kimberley Road , Greystones","code":"L260"}},{"$":{"name":"Greystones, Kilian Family Centre","town":"Greystones","lat":"53.146598","lng":"-6.062382","description":"Kilian Family Centre Rear of Holy Rosary Church Trafalgar Road Entrance , Greystones","code":"L259"}},{"$":{"name":"Haddington Road","town":"Dublin-S","lat":"53.33508","lng":"-6.240205","description":"Parish Centre St. Marys RC Church , Haddington Road","code":"L101"}},{"$":{"name":"Harolds Cross, Mount Argus Group","town":"Dublin-S","lat":"53.319313","lng":"-6.291153","description":"Mount Argus Community and Social Centre 179 Lower Kimmage Road  , Harold's Cross","code":"L102"}},{"$":{"name":"Headford","town":"Headford","lat":"53.469504","lng":"-9.110026","description":"Parish Hall , Headford","code":"C23"}},{"$":{"name":"Higher Power","town":"Dromore","lat":"54.512539","lng":"-7.468421","description":"Old Chapel School St. Dympna's Road Dromore , BT78 3AB","code":"U153"}},{"$":{"name":"Hilltown","town":"Hilltown","lat":"54.19821","lng":"-6.132799","description":"Parochial House Castlewellan Road Ballymaghery Hilltown , BT34 5UY   ","code":"U117"}},{"$":{"name":"Holywood","town":"Holywood","lat":"54.639823","lng":"-5.835785","description":"52A Church View Holywood , BT18 9DP","code":"U118"}},{"$":{"name":"Hospital","town":"Hospital","lat":"52.474383","lng":"-8.433675","description":"Family Resource Centre Knockainey Road , Hospital","code":"M124"}},{"$":{"name":"Huntstown ","town":"Dublin-N","lat":"53.401745","lng":"-6.408371","description":"Room 8 Huntstown Community Centre , Huntstown ","code":"L343"}},{"$":{"name":"Inchicore St. Michaels Group","town":"Dublin-S","lat":"53.339985","lng":"-6.315462","description":"De Mazenod Centre 52A Bulfin Road , Inchicore ","code":"L303"}},{"$":{"name":"Inis Oirr","town":"Inish Oírr (Inisheer)","lat":"53.0573325","lng":"-9.5318416","description":"Aras Eanna Inis Oirr (Inisheer) , Oileáin Árainn   ","code":"C131"}},{"$":{"name":"Irvinestown","town":"Irvinestown","lat":"54.471603","lng":"-7.63412","description":"Irvinestown Church Street Irvinestown , BT94 1EH","code":"U132"}},{"$":{"name":"Irvinestown, Sobriety Unlimited","town":"Irvinestown","lat":"54.470688","lng":"-7.631904","description":"Solace (Back Building) The Rock 44 Mill Street , BT94 1GR","code":"u254"}},{"$":{"name":"James Street St. Pats Group","town":"Dublin-S","lat":"53.343403","lng":"-6.291239","description":"St. Patricks University Hospital , Steeven's Lane ","code":"L135"}},{"$":{"name":"James's St., James's Hospital 6","town":"Dublin-S","lat":"53.340239","lng":"-6.294715","description":"St. James's Hospital Hospital 6 , James Street","code":"L104"}},{"$":{"name":"Kanturk","town":"Kanturk","lat":"52.1764414","lng":"-8.9040367","description":"Town Park House , Kanturk","code":"M71"}},{"$":{"name":"Keady","town":"Keady","lat":"54.254069","lng":"-6.690137","description":"Annvale / Keady Day Centre Annvale Road Keady , BT60 2RP","code":"U43"}},{"$":{"name":"Keel","town":"Keel","lat":"52.174683","lng":"-9.767409","description":"Keel Community Centre Castledrum Castlemaine , Keel ","code":"M251"}},{"$":{"name":"Keenagh, Just for Today","town":"Keenagh","lat":"53.626247","lng":"-7.818446","description":"The Enterprise Centre Old School , Keenagh","code":"L395"}},{"$":{"name":"Kells Day Time","town":"Kells","lat":"53.729518","lng":"-6.880899","description":"Peoples Resource Centre Old Carrick School Lord Edward Street , Kells","code":"L380"}},{"$":{"name":"Kenmare","town":"Kenmare","lat":"51.8768137","lng":"-9.5847951","description":"Adult Education Centre Bell Height , Kenmare ","code":"M99"}},{"$":{"name":"Kesh","town":"Kesh","lat":"54.522271","lng":"-7.722161","description":"The Old Courthouse Main Street Kesh , BT93 1TF ","code":"U225"}},{"$":{"name":"Kilcock, Scoil Dara","town":"Kilcock","lat":"53.4004103","lng":"-6.6680707","description":"Scoil Dara Secondary School Church Street , Kilcock","code":"L150"}},{"$":{"name":"Kilconnell","town":"Kilconnell","lat":"53.3296736","lng":"-8.4016830","description":"St. Gabriel's National School , Kilconnell","code":"C134"}},{"$":{"name":"Kilcoole Group.","town":"Kilcoole","lat":"53.114507","lng":"-6.065376","description":"The Old School House , Kilcoole","code":"L294"}},{"$":{"name":"Kilcullen","town":"Kilcullen","lat":"53.1304185","lng":"-6.7456316","description":"Parish Centre , Kilcullen  ","code":"L151"}},{"$":{"name":"Kildalkey","town":"Kildalkey","lat":"53.5709409","lng":"-6.9061008","description":"St. Dympna's Primary School Rear of St. Dympna's Church , Kildalkey Village","code":"L353"}},{"$":{"name":"Kildare Town ","town":"Kildare","lat":"53.1598293","lng":"-6.9089975","description":"Day Care Centre Bride Street , Kildare Town","code":"L152"}},{"$":{"name":"Kildorrey","town":"Kildorrey","lat":"52.245106","lng":"-8.426439","description":"National School , Kildoorey","code":"M72"}},{"$":{"name":"Kildysart","town":"Kildysart","lat":"52.672599","lng":"-9.104742","description":"Community Centre , Kildysart","code":"M270"}},{"$":{"name":"Kilfinane","town":"Kilfinane","lat":"52.3592940","lng":"-8.4717476","description":"Teach Na Cille Main Street , Kilfinane","code":"M125"}},{"$":{"name":"Kilkee","town":"Kilkee","lat":"52.6811678","lng":"-9.6471299","description":"Sacristy, Rear of  R. C. Church Kilkee  , Kilkee","code":"M10"}},{"$":{"name":"Kilkeel","town":"Kilkeel","lat":"54.068998","lng":"-6.033934","description":"AA Rooms St. Colemans Massforth  Drumcro Road , BT34 4HA","code":"U119"}},{"$":{"name":"Kilkenny","town":"Kilkenny","lat":"52.644515","lng":"-7.24878","description":"Social Service Centre Waterford Road , Kilkenny","code":"L165"}},{"$":{"name":"Kilkenny","town":"Kilkenny","lat":"52.657523","lng":"-7.258755","description":"Good Shepherd Centre , Kilkenny","code":"L164"}},{"$":{"name":"Kilkenny, Let Go Let God","town":"Kilkenny City","lat":"52.671854","lng":"-7.267413","description":"Villa Maria Talbot's Inch Freshford Road , Kilkenny","code":"L372"}},{"$":{"name":"Kill","town":"Kill","lat":"52.1793944","lng":"-7.3349836","description":"Kill Community Centre Kill Village , Kill ","code":"M181"}},{"$":{"name":"Killala","town":"Killala","lat":"54.214315","lng":"-9.221486","description":"Old School Chapel Lane , Killala","code":"C67"}},{"$":{"name":"Killaloe","town":"Killaloe","lat":"52.8154764","lng":"-8.4563741","description":"Family Resource Centre Ryagan House Shantraud , Killaloe","code":"M11"}},{"$":{"name":"Killarney, Into Action Group","town":"Killarney","lat":"52.058126","lng":"-9.508466","description":"The Methodist Church Kenmare Place , Killarney","code":"M244"}},{"$":{"name":"Killarney, Serenity ","town":"Killarney","lat":"52.0597857","lng":"-9.5069352","description":"Serenity Centre St. Anne's Road , Killarney","code":"M101"}},{"$":{"name":"Killarney, St. Mary's Parish Hall","town":"Killarney","lat":"52.0062893","lng":"-9.505067","description":"St. Mary's Parish Hall St. Ann's Road , Killarney","code":"M214"}},{"$":{"name":"Killeenan/Kildress, Dunamore","town":"Killeenan/Kildress","lat":"54.647311","lng":"-6.878772","description":"St. Joseph's Hall Killeenan Hall Cookstown , BT80 9NF","code":"U151"}},{"$":{"name":"Killenaule","town":"Killenuale","lat":"52.5687416","lng":"-7.6735737","description":"Heritage Centre , Killenaule ","code":"M159"}},{"$":{"name":"Killester","town":"Dublin-N","lat":"53.375104","lng":"-6.194656","description":"Kare Social Services Sybil Hill Road , Killester","code":"L46"}},{"$":{"name":"Killinick","town":"Killinick","lat":"52.2390727","lng":"-6.4411520","description":"Scout Hall Ballymore , Killinick","code":"L245"}},{"$":{"name":"Killorglin","town":"Killorglin","lat":"52.1078654","lng":"-9.7868689","description":"Scoil Mhuire National School School Road , Killorglin","code":"M102"}},{"$":{"name":"Killucan","town":"Killucan","lat":"53.5148756","lng":"-7.1415600","description":"St. Camillus Nursing Home Priests House , Killucan","code":"L231"}},{"$":{"name":"Killybegs","town":"Killybegs","lat":"54.631641","lng":"-8.44417","description":"Bruagh na Mara St. Catherine's Road , Killybegs","code":"U98"}},{"$":{"name":"Killyleagh","town":"Killyleagh","lat":"54.398936","lng":"-5.651157","description":"St. Mary's Hall Irish Street Killyleagh , BT30 9QS","code":"U265"}},{"$":{"name":"Kilmacud St. Raphaela's Group","town":"Dublin-S","lat":"53.282790","lng":"-6.206020","description":"St. Raphaela's Stillorgan Heath 1-11 , Kilmacud Road Upper Extension","code":"L99"}},{"$":{"name":"Kilmaine","town":"Kilmaine","lat":"53.5806361","lng":"-9.1245289","description":"Kilmaine Community Centre , Kilmaine","code":"C68"}},{"$":{"name":"Kilmainhamwood","town":"Kilmainhamwood","lat":"53.7258210","lng":"-6.8791723","description":"Kilmainham Wood  Nursing Home , Kells","code":"L206"}},{"$":{"name":"Kilmallock","town":"Kilmallock","lat":"52.400858","lng":"-8.569191","description":"Coote Hall Deebert , Kilmallock  ","code":"M126"}},{"$":{"name":"Kilmoganny","town":"Kilmoganny","lat":"52.461867","lng":"-7.325521","description":"Kilmoganny National School , Kilmoganny","code":"L167"}},{"$":{"name":"Kilmuckridge","town":"Kilmuckridge","lat":"52.508542","lng":"-6.288943","description":"Health Centre Kilmuckridge , Gorey","code":"L302"}},{"$":{"name":"Kilrane","town":"Kilrane","lat":"52.2419931","lng":"-6.3533818","description":"Kilrane Community Centre  , Kilrane","code":"L246"}},{"$":{"name":"Kilrea","town":"Kilrea","lat":"54.95342","lng":"-6.565661","description":"Kilrea Health Centre Garvagh Road Kilrea , BT51 5QP ","code":"U170"}},{"$":{"name":"Kilronan, Inis Mór","town":"Kilronan ","lat":"53.1237080","lng":"-9.6674590","description":"Halla Rónáin (Upstairs) , Cill Rónáin ","code":"C24"}},{"$":{"name":"Kilrush","town":"Kilrush","lat":"52.6362963","lng":"-9.4872039","description":"Community Centre , Kilrush","code":"M12"}},{"$":{"name":"Kiltyclogher","town":"Kiltyclogher","lat":"54.355887","lng":"-8.038366","description":"Health Centre , Kiltyclogher","code":"C44"}},{"$":{"name":"Kinsale","town":"Kinsale","lat":"51.706379","lng":"-8.526748","description":"Red Cross Centre Butchers Row , Kinsale","code":"M74"}},{"$":{"name":"Kinsale Recovery Group","town":"Kinsale","lat":"51.708509","lng":"-8.524800","description":"Carmelite Friary , Kinsale","code":"M268"}},{"$":{"name":"Kinvara ","town":"Kinvara","lat":"53.1384138","lng":"-8.9342080","description":"Mercy Convent Old Gort Road , Kinvara","code":"C25"}},{"$":{"name":"Kinvara Group","town":"Kinvara","lat":"53.139737","lng":"-8.940092","description":"Kinvara Community Centre (beside Garda Station) , Kinvara","code":"C172"}},{"$":{"name":"Kinvara Sun.","town":"Kinvara","lat":"53.1384138","lng":"-8.9342080","description":"Health Centre , Kinvara","code":"C101"}},{"$":{"name":"Kinvara Tues. Group","town":"Kinvara","lat":"53.1384138","lng":"-8.9342080","description":"Health Centre , Kinvara","code":"C167"}},{"$":{"name":"Knock","town":"Knock","lat":"53.791735","lng":"-8.918881","description":"St. John's Rest and Care , Knock","code":"C70"}},{"$":{"name":"Knocklyon, Iona Group","town":"Dublin-S","lat":"53.283931","lng":"-6.317412","description":"Iona Centre Idrone Avenue , Knocklyon","code":"L406"}},{"$":{"name":"Lanesboro","town":"Lanesboro","lat":"53.6739929","lng":"-8.0337193","description":"Convent of Mercy , Lanesboro ","code":"C135"}},{"$":{"name":"Laragh","town":"Laragh","lat":"53.009708","lng":"-6.303258","description":"Brockagh Centre , Laragh ","code":"L361"}},{"$":{"name":"Larne","town":"Larne","lat":"54.854661","lng":"-5.819126","description":"Gloucester Park  Day Centre Gloucester Avenue , BT40 1PD ","code":"U29"}},{"$":{"name":"Larne, Meeting House ","town":"Larne","lat":"54.853633","lng":"-5.813801","description":"Church of God Princes Gardens Larne , BT40 1RQ  ","code":"U256"}},{"$":{"name":"Laytown","town":"Julianstown","lat":"53.674303","lng":"-6.279588","description":"Parish Rooms St. Mary's Church of Ireland Laytown Road , Julianstown ","code":"L207"}},{"$":{"name":"Leixlip","town":"Leixlip","lat":"53.365586","lng":"-6.493306","description":"Parish Centre Rear of Our Lady's Nativity Church , Leixlip","code":"L110"}},{"$":{"name":"Leopardstown, Carmen Unit Gp.","town":"Dublin-S","lat":"53.270109","lng":"-6.20256","description":"Carmen Unit Leopardstown Park Hospital , Foxrock ","code":"L272"}},{"$":{"name":"Letterkenny Big Book","town":"Letterkenny","lat":"54.951539","lng":"-7.739455","description":"Pastoral Centre Monastery Avenue , Letterkenny","code":"U211"}},{"$":{"name":"Letterkenny, A New Beginning","town":"Letterkenny","lat":"54.951539","lng":"-7.739455","description":"Pastoral Centre Monastery Ave. , Letterkenny","code":"U100"}},{"$":{"name":"Letterkenny, A Vision For You","town":"Letterkenny","lat":"54.957151","lng":"-7.713608","description":"Irish Martyrs Gortlee Road , Letterkenny","code":"U205"}},{"$":{"name":"Letterkenny, Hospital Meeting","town":"Letterkenny","lat":"54.959008","lng":"-7.729671","description":"Saint Conals Hospital (Glengesh Room) High Road , Letterkenny  ","code":"u228"}},{"$":{"name":"Letterkenny, How it Works","town":"Letterkenny","lat":"54.950787","lng":"-7.740529","description":"Conference Room The Cathedral , Letterkenny","code":"U244"}},{"$":{"name":"Letterkenny, Pearse Road","town":"Letterkenny","lat":"54.948375","lng":"-7.737323","description":"Day Centre Oliver Plunkett Road , Letterkenny","code":"U180"}},{"$":{"name":"Letterkenny, Primary Purpose","town":"Letterkenny","lat":"54.949206","lng":"-7.732283","description":"Letterkenny Community  Centre Pearse Road , Letterkenny","code":"U261"}},{"$":{"name":"Lettermore","town":"Lettermore","lat":"53.2474486","lng":"-9.6654307","description":"Tiernee Hall Tiernee , Lettermore","code":"C27"}},{"$":{"name":"Lifford Friday","town":"Lifford","lat":"54.834672","lng":"-7.488663","description":"Lifford Clonleigh Resource Centre Croaghan Heights , Lifford","code":"U32"}},{"$":{"name":"Lifford, Primary Purpose Group","town":"Lifford","lat":"54.834208","lng":"-7.490058","description":"Rehab  Care Lifford Finn Valley Enterprise Park Letterkenny Road , Lifford","code":"U194"}},{"$":{"name":"Limavady","town":"Limavady","lat":"55.046485","lng":"-6.948799","description":"Old Parochial House 115 Irish Green Street Limavady , BT49 9AB","code":"U248"}},{"$":{"name":"Limerick City, Akron","town":"Limerick","lat":"52.665835","lng":"-8.615411","description":"St. Patrick's Hostal Killeary Lodge , Clare Street","code":"M127"}},{"$":{"name":"Limerick City, Caherdavin","town":"Limerick City","lat":"52.675862","lng":"-8.664222","description":"Caherdavin Community Centre Whitethorn Drive , Caherdavin","code":"M221"}},{"$":{"name":"Limerick City, Castletroy, Plassey Group","town":"Limerick City","lat":"52.671275","lng":"-8.566622","description":"(Rear ) Milford Church  , Castletroy  ","code":"M209"}},{"$":{"name":"Limerick City, Dooradoyle","town":"Limerick","lat":"52.6384521","lng":"-8.6462410","description":"St. Paul's National School , Dooradoyle ","code":"M210"}},{"$":{"name":"Limerick City, Hole in the Wall","town":"Limerick City","lat":"52.669242","lng":"-8.620443","description":"St. Mary's Town House St. Mary's Church , Athlunkard Street","code":"M130"}},{"$":{"name":"Limerick City, Mulgrave Street","town":"Limerick City","lat":"52.657829","lng":"-8.616634","description":"St. Josephs Hospital Lodge , Mulgrave Street","code":"M131"}},{"$":{"name":"Limerick City, New Rosbrien","town":"Limerick City","lat":"52.660975","lng":"-8.628994","description":"Rear of Christ Church Entrance  through Hanrattys Lane , Off Glenworth Street ","code":"M136"}},{"$":{"name":"Limerick City, New Street","town":"Limerick","lat":"52.637842","lng":"-8.651948","description":"Mount Secondary School Off New Street , Limerick","code":"M140"}},{"$":{"name":"Limerick City, O'Connell Street Group","town":"Limerick- City","lat":"52.662941","lng":"-8.627459","description":"The Basement  St. Augustine Church , O'Connell Street ","code":"M256"}},{"$":{"name":"Limerick City, Salesian","town":"Limerick","lat":"52.664528","lng":"-8.638601","description":"Salesian Convent Fern Bank , Ennis Road","code":"M133"}},{"$":{"name":"Limerick City, Sarsfield","town":"Limerick City","lat":"52.647301","lng":"-8.619118","description":"Lough Gur Room Maldron Hotel , Roxboro","code":"M137"}},{"$":{"name":"Limerick, Eden","town":"Limerick","lat":"52.663952","lng":"-8.624498","description":"Pastoral Centre , Denmark Street","code":"M265"}},{"$":{"name":"Limerick, Fairgreen","town":"Limerick City","lat":"52.656937","lng":"-8.609945","description":"Brother Russell Home , Mulgrave Street ","code":"M134"}},{"$":{"name":"Lisburn The Bridge Gp.","town":"Lisburn","lat":"54.513406","lng":"-6.044101","description":"The Bridge Community Centre 50 Railway Street Lisburn , BT28 1XP","code":"U174"}},{"$":{"name":"Lisburn, 23 Railway Street","town":"Lisburn","lat":"54.512396","lng":"-6.043725","description":"23 Railway Street Lisburn , BT28 1XF","code":"U30"}},{"$":{"name":"Liscannor","town":"Liscannor","lat":"52.9395274","lng":"-9.3926322","description":"Liscannor National School , Liscannor","code":"M14"}},{"$":{"name":"Lisdoonvara","town":"Lisdoonvarna","lat":"53.0317957","lng":"-9.2908638","description":"Medical Centre Car Park , Lisdoonvarna","code":"M15"}},{"$":{"name":"Lismore","town":"Lismore","lat":"52.1383174","lng":"-7.9302342","description":"Church of Ireland Parish Hall East Main Street , Lismore","code":"M182"}},{"$":{"name":"Lisnaskea","town":"Lisnaskea","lat":"54.25712","lng":"-7.449658","description":"Lisnaskea Parish Centre Drumhaw Lisnaskea , BT92 0FS","code":"U133"}},{"$":{"name":"Listowel","town":"Listowel","lat":"52.446869","lng":"-9.496629","description":"Senan House Hospital Grounds , Listowel","code":"M103"}},{"$":{"name":"Listowel Lunchtime","town":"Listowel","lat":"52.4476869","lng":"-9.4882424","description":"Youth Café (Next to St. Patrick's Hall) Upper William Street , Listowel","code":"M247"}},{"$":{"name":"Lixnaw","town":"Lixnaw","lat":"52.4020409","lng":"-9.6160869","description":"Presentation Convent Main Street , Lixnaw   ","code":"M104"}},{"$":{"name":"Longford","town":"Longford","lat":"53.7258242","lng":"-7.7987351","description":"Family Centre St. Mels Road , Longford","code":"L185"}},{"$":{"name":"Longford","town":"Longford","lat":"53.724843","lng":"-7.786753","description":"Health Care Centre Dublin Road , Longford","code":"L187"}},{"$":{"name":"Loughmacrory","town":"Loughmacrory","lat":"54.624936","lng":"-7.108068","description":"St. Teresa's Primary School 166 Loughmacrory Road , BT79 9LG","code":"U235"}},{"$":{"name":"Loughrea Sunday Morning","town":"Loughrea","lat":"53.2000301","lng":"-8.5696120","description":"Temperance Hall Barrack Street , Loughrea","code":"C116"}},{"$":{"name":"Loughrea, Rea Group","town":"Loughrea","lat":"53.2000301","lng":"-8.5696120","description":"The Rea Club Under Arch (next door to Fahy Glazers) Main Street , Loughrea","code":"C118"}},{"$":{"name":"Loughrea, Tuesday ","town":"Loughrea","lat":"53.2000301","lng":"-8.5696120","description":"Temperance Hall Barrack St. , Loughrea","code":"C28"}},{"$":{"name":"Louisburgh, Clewbay Group","town":"Louisburgh","lat":"53.7608421","lng":"-9.8087736","description":"The Convent Building , Louisburgh","code":"C145"}},{"$":{"name":"Lucan Friday Night Group","town":"Dublin-S","lat":"53.3503467","lng":"-6.3501452","description":"St. Mary's Parish Centre Rear of R.C. Church , Lucan Road ","code":"L112"}},{"$":{"name":"Lucan Pass it On Gp.","town":"Dublin-S","lat":"53.3575397","lng":"-6.4456022","description":"Methodist Church Hall , Lucan Village","code":"L113"}},{"$":{"name":"Lurgan","town":"Lurgan","lat":"54.460366","lng":"-6.342343","description":"Manor Day Centre Manor Drive Lurgan , BT66 8QD ","code":"U44"}},{"$":{"name":"Lurgan, Aghagallow","town":"Lurgan","lat":"54.407599","lng":"-6.306698","description":"Cranagh Hall White Hall Road Aghagallon , BT67 0AE","code":"U187"}},{"$":{"name":"Lurgan, Pinebank","town":"Lurgan","lat":"54.4649","lng":"-6.336225","description":"(Above) Roxy Heel Bar 41A Church Place Lurgan , BT66 6EU ","code":"U41"}},{"$":{"name":"Lurgan, Pinebank","town":"Lurgan","lat":"54.45991","lng":"-6.338686","description":"Church Hall Hill Street , BT66 6BQ","code":"U243"}},{"$":{"name":"Lusk, Back to Basics","town":"Dublin-N","lat":"53.529557","lng":"-6.170669","description":"The Parish Centre , Lusk","code":"L396"}},{"$":{"name":"Maghaberry","town":"Maghaberry","lat":"54.508115","lng":"-6.182384","description":"Maghaberry Community Centre Maghaberry Road Moira , BT28 2RH","code":"U240"}},{"$":{"name":"Maghera","town":"Maghera","lat":"54.845782","lng":"-6.67235","description":"C/o Maghera Day Centre 26 Coleraine Road Maghera , BT46 5BN","code":"U80"}},{"$":{"name":"Magherafelt","town":"Magherfelt","lat":"54.760457","lng":"-6.613297","description":"Adult Centre Midulster Hospital Hospital Road Magherafelt , BT45 5EG","code":"U81"}},{"$":{"name":"Magherfelt","town":"Magherafelt","lat":"54.754517","lng":"-6.606397","description":"Beacon Centre The Diamond Magherafelt , BT45 6ED","code":"U167"}},{"$":{"name":"Magilligan","town":"Magilligan / Bellarena","lat":"55.151972","lng":"-6.911019","description":"St. Aiden's Church Hall  71 Duncrun Road Magilligan, Limavady Limavady , BT49 0JD","code":"U173"}},{"$":{"name":"Maguiresbridge","town":"Maguiresbridge","lat":"54.290199","lng":"-7.464004","description":"St. Mary's  School Lisnaskea Road Maguiresbridge , BT94 4QX","code":"U134"}},{"$":{"name":"Malahide","town":"Dublin-N","lat":"53.451216","lng":"-6.155123","description":"Parish Hall Rear of St. Sylvesters Church Old Street , Malahide","code":"L47"}},{"$":{"name":"Malahide Tues","town":"Dublin-N","lat":"53.449925","lng":"-6.159189","description":"Presbyterian Hall Dublin Road , Malahide","code":"L49"}},{"$":{"name":"Mallow, Mercy Centre","town":"Mallow","lat":"52.140771","lng":"-8.643086","description":"Mercy Centre Fair Street , Mallow","code":"M77"}},{"$":{"name":"Mallow, Southside","town":"Mallow","lat":"52.0577255","lng":"-9.5082","description":"Church of Ressurrection Bellvue , Mallow","code":"M224"}},{"$":{"name":"Manorhamilton Friday Night","town":"Manorhamilton","lat":"54.304205","lng":"-8.169542","description":"Arus Breffni Formerly Day Centre , Manorhamilton","code":"C45"}},{"$":{"name":"Manorhamilton, Living Sober","town":"Manorhamilton","lat":"54.306259","lng":"-8.174729","description":"Bee Park Community Centre New Line , Manorhamilton","code":"C152"}},{"$":{"name":"Maynooth","town":"Maynooth","lat":"53.384135","lng":"-6.594758","description":"Room 5 Divine Word Missionaries Moyglare Road , Maynooth","code":"L153"}},{"$":{"name":"Maynooth College","town":"Maynooth","lat":"53.384608","lng":"-6.602011","description":"Students Union N.U.I. Maynooth , Maynooth","code":"L388"}},{"$":{"name":"Maynooth College","town":"Maynooth","lat":"53.383815","lng":"-6.603363","description":"Students Services Building N.U.I. Maynooth","code":"L387"}},{"$":{"name":"Meath Street John's Lane Group","town":"Dublin-S","lat":"53.3412834","lng":"-6.2786306","description":"The Little Flower Hall , Meath Street","code":"L105"}},{"$":{"name":"Midleton","town":"Midleton","lat":"51.9160695","lng":"-8.1816374","description":"Day Room Owenacurra Hospital , Midleton  ","code":"M78"}},{"$":{"name":"Miltown","town":"Miltown","lat":"53.615881","lng":"-8.903646","description":"Day Care Centre , Miltown","code":"C29"}},{"$":{"name":"Miltown Malbay","town":"Miltown Malbay","lat":"52.856483","lng":"-9.397967","description":"Clare Care Building Ballard Road , Miltown Malbay","code":"M16"}},{"$":{"name":"Mitchelstown","town":"Mitchelstown","lat":"52.2654423","lng":"-8.2709372","description":"Marian Hall , Mitchelstown ","code":"M81"}},{"$":{"name":"Moate","town":"Moate","lat":"53.395441","lng":"-7.723786","description":"Carmelite Pastoral Centre Newtown , Moate ","code":"L232"}},{"$":{"name":"Mohill","town":"Mohill","lat":"53.9224008","lng":"-7.8688395","description":"St. Joseph's Outreach School Convent Lane , Mohill","code":"C46"}},{"$":{"name":"Monaghan, Kindergarten","town":"Monaghan","lat":"54.216342","lng":"-6.851032","description":"St. Mary's Boys School Clones Road , Monaghan  ","code":"U142"}},{"$":{"name":"Monaghan,The Grange 1st Monaghan ","town":"Monaghan","lat":"54.25104","lng":"-6.974939","description":"The Wellness Centre 19 The Grange. Plantation Walk Rowantree Road , Monaghan Town","code":"U143"}},{"$":{"name":"Monkstown Homecomers Group","town":"Dublin-S","lat":"53.292370","lng":"-6.151239","description":"Quaker Hall Pakenham Road , Monkstown","code":"L115"}},{"$":{"name":"Mount Merrion","town":"Dublin-S","lat":"53.300925","lng":"-6.190903","description":"Community Centre Church of St. Philip & St. James Cross Avenue Off Mt. Merrion Ave , Mount Merrion","code":"L116"}},{"$":{"name":"Mountcollins","town":"Mountcollins","lat":"52.3193202","lng":"-9.2316818","description":"National School , Mountcollins   ","code":"M138"}},{"$":{"name":"Mountfield Big Book ","town":"Mountfield","lat":"54.722676","lng":"-6.984192","description":"Mountfield Community Centre 3 Main Street Mountfield Omagh , BT79 9PP","code":"U158"}},{"$":{"name":"Mountmellick","town":"Mountmellick","lat":"53.1175999","lng":"-7.3306318","description":"The Clinic St. Vincents Hospital Grounds Irishtown , Mountmellick","code":"L172"}},{"$":{"name":"Moville, In the Solution","town":"Moville","lat":"55.188584","lng":"-7.045304","description":"Day Centre (1st Left after Centra Store) Derry Road , Moville ","code":"U103"}},{"$":{"name":"Moycullen B.B.","town":"Moycullen","lat":"53.3390963","lng":"-9.1804162","description":"Arus Uilinn Church Road , Moycullen","code":"C31"}},{"$":{"name":"Moyvane New Hope ","town":"Moyvane","lat":"52.5000401","lng":"-9.3673119","description":"Community Centre Knockanure , Moyvane ","code":"M26"}},{"$":{"name":"Muff","town":"Muff","lat":"55.065651","lng":"-7.269695","description":"Whiteoaks Rehabilation Centre Derryvane  , Muff","code":"U197"}},{"$":{"name":"Mullingar","town":"Mullingar","lat":"53.531457","lng":"-7.321379","description":"St. Loman's Hospital Admission Unit , Mullingar","code":"L233"}},{"$":{"name":"Mullingar","town":"Mullingar","lat":"53.5247659","lng":"-7.3378658","description":"Day Care Centre St. Marys Hospital , Mullingar","code":"L234"}},{"$":{"name":"Mullingar Mid Day","town":"Mullingar","lat":"53.526486","lng":"-7.342794","description":"I.N.C.A. Centre St. Martins Lane , Mullingar","code":"L235"}},{"$":{"name":"Mullingar, A Vision For You","town":"Mullingar","lat":"53.531460","lng":"-7.321382","description":"St. Loman's  , Mullingar","code":"L365"}},{"$":{"name":"Murroe","town":"Murroe","lat":"52.6533977","lng":"-8.3988644","description":"Primary School , Morroe","code":"M246"}},{"$":{"name":"Naas","town":"Naas","lat":"53.2192615","lng":"-6.6615099","description":"Naas Community Centre Church of Our Lady and St. David Sallins Road , Naas ","code":"L154"}},{"$":{"name":"Naas","town":"Naas","lat":"53.218471","lng":"-6.663208","description":"St. David's Church Main Street , Naas","code":"L389"}},{"$":{"name":"Naas, New Beginnings","town":"Naas","lat":"53.218472","lng":"-6.663206","description":"St. Davids Church Main Street , Naas","code":"L384"}},{"$":{"name":"Navan Road","town":"Dublin-N","lat":"53.366809","lng":"-6.313679","description":"Sacred Heart Room Parish Centre Rear of Navan Road Church , Navan Road","code":"L336"}},{"$":{"name":"Navan, Acceptance","town":"Navan","lat":"53.6437326","lng":"-6.4274696","description":"Scoil Mhuire Abbey Road , Navan","code":"L213"}},{"$":{"name":"Navan, Community Centre","town":"Navan","lat":"53.652047","lng":"-6.686983","description":"Community Centre Trimgate Street , Navan","code":"L209"}},{"$":{"name":"Navan, Dalgan Group","town":"Navan","lat":"53.6546019","lng":"-6.6888171","description":"Dalgan Park Old Dublin Road , Navan","code":"L212"}},{"$":{"name":"Navan, Lithuanian - Russian Gp.","town":"Navan","lat":"53.651223","lng":"-6.68547","description":"Resource Centre St. Mary's Church Fairgreen , Navan","code":"L391"}},{"$":{"name":"Navan, Resource Centre","town":"Navan","lat":"53.65211","lng":"-6.686608","description":"The Resource Centre St. Mary's Church Fair Green , Navan","code":"L211"}},{"$":{"name":"Navan, Unity Group","town":"Navan","lat":"53.668236","lng":"-6.699359","description":"Unity Hall Dunloe Avenue Windtown , Navan ","code":"L381"}},{"$":{"name":"Navan, Wit's End","town":"Navan","lat":"53.651964","lng":"-6.686897","description":"Community Centre Trimgate Street , Navan","code":"l374"}},{"$":{"name":"Nenagh Group","town":"Nenagh","lat":"52.863194","lng":"-8.197145","description":"Pastoral Centre Church Road , Nenagh ","code":"M259"}},{"$":{"name":"Nenagh, Town Hall","town":"Nenagh","lat":"52.865035","lng":"-8.199601","description":"Town Hall Banba Square , Nenagh ","code":"M161"}},{"$":{"name":"Nenagh, Tyone Group","town":"Nenagh","lat":"52.857046","lng":"-8.189524","description":"Tyone Community Centre Tyone , Nenagh ","code":"M260"}},{"$":{"name":"New Inn, Rockwell","town":"New Inn","lat":"52.4401588","lng":"-7.8808239","description":"Rockwell College , New Inn ","code":"M164"}},{"$":{"name":"New Ross","town":"New Ross","lat":"52.397414","lng":"-6.943504","description":"Y.M.C.A. Building John Street , New Ross","code":"L250"}},{"$":{"name":"New Ross, Robert Street","town":"New Ross","lat":"52.3958059","lng":"-6.9459646","description":"Pastoral Centre Robert Street , New Ross","code":"L293"}},{"$":{"name":"Newbridge Big Book","town":"Newbridge","lat":"53.181086","lng":"-6.799765","description":"Room 10 Newbridge Parish Centre Station Road , Newbridge","code":"L155"}},{"$":{"name":"Newbridge Monday Night Group","town":"Newbridge","lat":"53.1804734","lng":"-6.7959252","description":"Kare Centre Newbridge Industrial Estate , Newbridge ","code":"L349"}},{"$":{"name":"Newbridge, Back to Basics","town":"Newbridge","lat":"53.188554","lng":"-6.793396","description":"1st Year Prefab Newbridge College , Newbridge","code":"L390"}},{"$":{"name":"Newbridge, Gratitude","town":"Newbridge","lat":"53.1804734","lng":"-6.7959252","description":"Resource Centre Dara Park , Newbridge","code":"L329"}},{"$":{"name":"Newbridge, Sat. Night Group","town":"Newbridge","lat":"53.1804734","lng":"-6.7959252","description":"Cill Mhuire (beside Church) Ballymany , Newbridge ","code":"L156"}},{"$":{"name":"Newbridge, Serenity ","town":"Newbridge","lat":"53.1804734","lng":"-6.7959252","description":"Newbridge Parish Centre  Station Road , Newbridge ","code":"L157"}},{"$":{"name":"Newcastle","town":"Newcastle","lat":"54.20855","lng":"-5.894283","description":"5 Causeway Road Newcastle , BT33 0EY ","code":"U120"}},{"$":{"name":"Newcastle","town":"Newcastle","lat":"53.079647","lng":"-6.100737","description":"Newcastle Hospital , Newcastle","code":"L398"}},{"$":{"name":"Newcastle Sunday Group","town":"Newcastle ","lat":"53.079648","lng":"-6.100738","description":"Newcastle Hospital , Newcastle","code":"L261"}},{"$":{"name":"Newcastle West","town":"Newcastle West","lat":"52.448967","lng":"-9.058068","description":"Parish Hall St. Mary's Road , Newcastle West","code":"M139"}},{"$":{"name":"Newcastle West","town":"Newcastle West","lat":"52.44883","lng":"-9.058206","description":"Parish Hall St. Mary's Road , Newcastle West","code":"M250"}},{"$":{"name":"Newport","town":"Newport","lat":"52.711482","lng":"-8.411869","description":"Parochial House Church Road , Newport","code":"M162"}},{"$":{"name":"Newport","town":"Newport","lat":"53.88502","lng":"-9.54309","description":"Newport Youth Cafe Castlebar Street , Newport","code":"C71"}},{"$":{"name":"Newry, Dublin Road Group","town":"Newry","lat":"54.271344","lng":"-6.309844","description":"Cuan Mhuire 200 Dublin Road Newry  , BT35 8RL","code":"U47"}},{"$":{"name":"Newry, Monaghan Street","town":"Newry","lat":"54.176829","lng":"-6.340603","description":"1E Monaghan Street Newry , BT35 6BB","code":"U48"}},{"$":{"name":"Newry, Water Street ","town":"Newry","lat":"54.174521","lng":"-6.338309","description":"Behind Newry Cathedral Hill Street Newry , BT34 3BE","code":"U250"}},{"$":{"name":"Newton Friday Gp.","town":"Newton Cunningham","lat":"54.992235","lng":"-7.523995","description":"Trinity Court Monfad Road , Newton Cunningham","code":"U264"}},{"$":{"name":"Newtownabbey, Abbey","town":"Newtownabbey","lat":"54.675469","lng":"-5.894101","description":"Whiteabbey Methodist Church Hall 566-568 Shore Road Newtownabbey , BT37 0SL ","code":"u236"}},{"$":{"name":"Newtownabbey, Glengormley ","town":"Newtownabbey","lat":"54.675057","lng":"-5.960486","description":"St. Brigid's Church  Ballyclare Road , BT36 5HL","code":"U31"}},{"$":{"name":"Newtowncunningham","town":"Newtowncunningham","lat":"54.999339","lng":"-7.507008","description":"Presbyterian Church Hall Monfad Rd , Newtowncunningham ","code":"U104"}},{"$":{"name":"North Down","town":"Newtownards","lat":"54.596132","lng":"-5.702453","description":"26 William Street Newtownards , BT23 4EJ ","code":"U122"}},{"$":{"name":"Omagh","town":"Omagh","lat":"54.602614","lng":"-7.308594","description":"Gortmore House 18A Derry Road , BT78 5DR","code":"U159"}},{"$":{"name":"Omagh Beginners Group","town":"Omagh","lat":"54.609503","lng":"-7.283597","description":"Ramona House Mullaghmore Omagh , BT79 7HA","code":"U260"}},{"$":{"name":"Omagh Serenity","town":"Omagh","lat":"54.601937","lng":"-7.308003","description":"Pastoral Centre Brookmount Road Omagh , BT78 5HD","code":"U160"}},{"$":{"name":"Omagh, Killyclogher","town":"Omagh","lat":"54.609062","lng":"-7.268314","description":"St. Mary's Primary School Killyclogher , Omagh ","code":"U157"}},{"$":{"name":"Omeath","town":"Omeath","lat":"54.084116","lng":"-6.253216","description":"The Dolmen Centre Knocknagoran , Omeath","code":"L301"}},{"$":{"name":"Oranmore","town":"Oranmore","lat":"53.270484","lng":"-8.921892","description":"Health Centre , Oranmore ","code":"C125"}},{"$":{"name":"Oughterard","town":"Oughterard","lat":"53.427243","lng":"-9.327586","description":"Parish Office (Rear of RC Church) , Oughterard ","code":"C32"}},{"$":{"name":"Oughterard, Food for Thought","town":"Oughterard","lat":"53.427263","lng":"-9.327564","description":"Parish Office Rear of RC Church , Oughterard","code":"C162"}},{"$":{"name":"Palmerstown, New Hope Group","town":"Dublin-S","lat":"53.356046","lng":"-6.371148","description":"The Parish Centre , Palmerstown Village ","code":"L132"}},{"$":{"name":"Patrickswell","town":"Patrickswell","lat":"52.5730155","lng":"-8.6689433","description":"Resource Centre Main Street , Patrickswell ","code":"M141"}},{"$":{"name":"Plumbridge","town":"Plumbridge","lat":"54.768518","lng":"-7.252763","description":"St. Peter's Primary School Plumbridge , BT79 8AF","code":"U162"}},{"$":{"name":"Pomeroy","town":"Pomeroy","lat":"54.589488","lng":"-6.908234","description":"The Rowan Tree Centre Tandragee Road Pomeroy , BT70 3DS","code":"U161"}},{"$":{"name":"Portadown, Drumcree","town":"Portadown","lat":"54.431152","lng":"-6.454232","description":"Mayfair Business Centre Garvaghy Road Portadown , BT62 1HA","code":"U49"}},{"$":{"name":"Portadown, Edward St.","town":"Portadown","lat":"54.421402","lng":"-6.44213","description":"Salvation Army Building Edward Street Portadown , BT62 3NE","code":"U50"}},{"$":{"name":"Portaferry","town":"Portaferry","lat":"54.380602","lng":"-5.545516","description":"Community Centre Steele Dickson Ave. Portaferry , BT22 1LF","code":"u123"}},{"$":{"name":"Portarlington","town":"Portarlington","lat":"53.159767","lng":"-7.189479","description":"9 Foxcroft Street , Portarlington ","code":"L290"}},{"$":{"name":"Portlaoise, Serenity Group","town":"Portlaoise","lat":"53.036439","lng":"-7.301241","description":"Methodist Church Across from Train Station , Portlaoise","code":"L176"}},{"$":{"name":"Portlaoise, Serenity Group","town":"Portlaoise","lat":"53.038691","lng":"-7.276243","description":"St. Fintan's Hospital 'The Haven' Dublin Road , Portlaoise","code":"L404"}},{"$":{"name":"Portlaoise, The Loft","town":"Portlaoise","lat":"53.036846","lng":"-7.292068","description":"The Loft St. Mary's Hall Old Dublin Road , Portlaoise","code":"L174"}},{"$":{"name":"Portlaoise, Unity Group","town":"Portlaoise","lat":"53.040358","lng":"-7.304873","description":"Respond Community Centre Millcourt Greenmill Lane , Portlaoise","code":"L403"}},{"$":{"name":"Portmarnock","town":"Dublin-N","lat":"53.421637","lng":"-6.136229","description":"The Annex St. Annes Parish Church Strand Road , Portmarnock Village","code":"L48"}},{"$":{"name":"Portroe","town":"Portroe","lat":"52.8848499","lng":"-8.3442087","description":"Old School , Portroe ","code":"M163"}},{"$":{"name":"Portrush","town":"Portrush","lat":"55.208124","lng":"-6.655865","description":"104 Lower Main Street Portrush , BT56 8DA ","code":"U33"}},{"$":{"name":"Portstewart","town":"Portstewart","lat":"55.183286","lng":"-6.719273","description":"Portstewart Minor Town Hall The Cresent Portstewart , BT55 7AB","code":"U82"}},{"$":{"name":"Portumna","town":"Portumna","lat":"53.0925398","lng":"-8.2207433","description":"Day Care Centre Castle Avenue , Portumna","code":"C33"}},{"$":{"name":"Prosperous ","town":"Prosperous","lat":"53.291483","lng":"-6.754253","description":"The Old Hall Donadea Road , Prosperous","code":"L158"}},{"$":{"name":"Prussia Street","town":"Dublin-N","lat":"53.354301","lng":"-6.286492","description":"Aughrim Street Parish Centre , Prussia Street ","code":"L51"}},{"$":{"name":"Quin","town":"Quin","lat":"52.8158877","lng":"-8.8642004","description":"Dispensary Ennis Road , Quin","code":"M19"}},{"$":{"name":"Raheny","town":"Dublin-N","lat":"53.377857","lng":"-6.179338","description":"C.A.R.A. Hall All Saints Drive , Raheny ","code":"L52"}},{"$":{"name":"Ramelton","town":"Ramelton","lat":"55.0368805","lng":"-7.6492360","description":"Robertson School Church Street , Ramelton ","code":"U107"}},{"$":{"name":"Ranalagh, Beechwood","town":"Dublin-S","lat":"53.318779","lng":"-6.251623","description":"Community Centre Beechwood Mountainview Road , Ranelagh","code":"L117"}},{"$":{"name":"Randalstown","town":"Randalstown","lat":"54.749892","lng":"-6.314607","description":"St. Mac Nissi's Parish Centre Station Road Randalstown , BT41 2AE ","code":"U196"}},{"$":{"name":"Raphoe","town":"Raphoe","lat":"54.873871","lng":"-7.599438","description":"Congregational Hall Letterkenny Road , Raphoe","code":"U106"}},{"$":{"name":"Rathcoole","town":"Dublin-S","lat":"53.281997","lng":"-6.464494","description":"The Health Centre Main Street , Rathcoole","code":"L118"}},{"$":{"name":"Rathdowney","town":"Rathdowney","lat":"52.8569454","lng":"-7.5875146","description":"Old  YMCA Hall Church Street , Rathdowney","code":"L177"}},{"$":{"name":"Rathdrum, One Day at a Time Gp.","town":"Rathdrum","lat":"52.933001","lng":"-6.239038","description":"St. Colman's Hospital , Rathdrum","code":"L262"}},{"$":{"name":"Rathfarnham, Sancta Maria Gp.","town":"Dublin-S","lat":"53.284432","lng":"-6.304809","description":"Sancta Maria Sec. School Ballyroan Crescent , Rathfarnham ","code":"L119"}},{"$":{"name":"Rathgar Grosvenor Road Group","town":"Dublin-S","lat":"53.318718","lng":"-6.271742","description":"Parish Centre 52 Grosvenor Road , Rathgar","code":"L120"}},{"$":{"name":"Rathgar Highfield Serenity Group","town":"Dublin-S","lat":"53.312641","lng":"-6.272871","description":"Tennant Hall Christ Church , Rathgar/Highfield Road ","code":"L348"}},{"$":{"name":"Rathgar Jubilee Group","town":"Dublin-S","lat":"53.312625","lng":"-6.272897","description":"Social Centre (Next) Christ Church   , Rathgar Road","code":"L106"}},{"$":{"name":"Rathkeale","town":"Rathkeale","lat":"52.5236709","lng":"-8.9381361","description":"Community Games Office Main Street (Across from Garda Station) , Rathkeale","code":"M142"}},{"$":{"name":"Rathmines Black Church Group","town":"Dublin-S","lat":"53.320655","lng":"-6.261914","description":"Church of The Holy Trinity Church Avenue , Rathmines","code":"L122"}},{"$":{"name":"Rathmines Richmond Hill Gp.","town":"Dublin-S","lat":"53.327359","lng":"-6.263549","description":"St. Mary's Parish Centre Richmond Hill Road , Rathmines","code":"L129"}},{"$":{"name":"Recess","town":"Recess","lat":"53.465148","lng":"-9.702044","description":"Parochial House , Recess","code":"C114"}},{"$":{"name":"Rialto","town":"Dublin-S","lat":"53.335654","lng":"-6.296309","description":"Rialto Parish Centre South Circular Road , Rialto","code":"L123"}},{"$":{"name":"Richhill","town":"Richhill","lat":"54.371821","lng":"-6.551274","description":"The Women's Institute Main Street Richhill , BT61 9PJ","code":"U52"}},{"$":{"name":"Roosky","town":"Roosky","lat":"53.8101768","lng":"-7.9564416","description":"The Old School , Roosky","code":"C142"}},{"$":{"name":"Roscommon Town","town":"Roscommon","lat":"53.6279798","lng":"-8.1886350","description":"St. Comans Club Abbey Street , Roscommon","code":"C81"}},{"$":{"name":"Roscrea Community Ctr. Group","town":"Roscrea","lat":"52.9550961","lng":"-7.7991777","description":"Roscrea Community Centre Rosemary Street , Roscrea ","code":"m242"}},{"$":{"name":"Roscrea, Monastery ","town":"Roscrea","lat":"52.9550961","lng":"-7.7991777","description":"Monastery Guest House Mount St. Joseph's Abbey , Roscrea","code":"M167"}},{"$":{"name":"Roslea","town":"Roslea","lat":"54.238478","lng":"-7.170077","description":"Community Centre Monaghan Road Roslea , BT92 7DD ","code":"U135"}},{"$":{"name":"Rosscarbery","town":"Rosscarbery","lat":"51.5782637","lng":"-9.0328734","description":"Community Hall , Rosscarbery","code":"M84"}},{"$":{"name":"Rostrevor","town":"Rostrevor","lat":"54.101539","lng":"-6.197862","description":"Harmony Hall Church Street Rostrevor , BT34 3BA","code":"U125"}},{"$":{"name":"Roundwood","town":"Roundwood","lat":"53.063894","lng":"-6.226292","description":"St. Laurence O'Toole  National School Lough Dan Road , Roundwood","code":"L263"}},{"$":{"name":"Rush","town":"Dublin-N","lat":"53.522753","lng":"-6.096715","description":"Rush Community Centre Main Street , Rush","code":"L65"}},{"$":{"name":"Rusheen Creamery Group","town":"Macroom","lat":"51.9053120","lng":"-8.9578580","description":"Old Creamery Rusheen , Macroom","code":"M257"}},{"$":{"name":"Sallins, Just for Today ","town":"Sallins","lat":"53.2521733","lng":"-6.6654640","description":"Sallins Community Centre (beside the Church) , Sallins","code":"L317"}},{"$":{"name":"Santry","town":"Dublin-N","lat":"53.398287","lng":"-6.243748","description":"New Community Centre Drumville Court Coolock Lane Opposite Fastfit , Santry ","code":"L346"}},{"$":{"name":"Scarriff","town":"Scarriff","lat":"52.9110719","lng":"-8.5297771","description":"East Clare Commuity Co Op Room Main Street (beside spice of life) , Scarriff","code":"M20"}},{"$":{"name":"Schull","town":"Schull","lat":"51.524948","lng":"-9.547648","description":"Church of Ireland Hall Inglenook , Schull","code":"M86"}},{"$":{"name":"Shanagolden","town":"Shanagolden","lat":"52.572602","lng":"-9.099743","description":"Health and Wellness Centre Main Street , Shanagolden","code":"M122"}},{"$":{"name":"Shankill St. Annes Gp.","town":"Dublin-S","lat":"53.234174","lng":"-6.124325","description":"St. Anne's Resource Ctr Beside St. Anne's RC Church , Shankill","code":"L128"}},{"$":{"name":"Shankill, Quinns Road Group","town":"Dublin-S","lat":"53.230788","lng":"-6.117836","description":"(next door to) Arann Reformed Baptist Church Quinns Road , Shankilll","code":"L295"}},{"$":{"name":"Shannon Group","town":"Shannon","lat":"52.699869","lng":"-8.890316","description":"St. Senan's Primary School Drumgeely , Shannon","code":"M21"}},{"$":{"name":"Shannon, Bealach Brí","town":"Shannon","lat":"52.708577","lng":"-8.877243","description":"Bealach Brí Shannon Health Centre , Shannon","code":"M245"}},{"$":{"name":"Shannonbridge","town":"Shannonbridge","lat":"53.2787072","lng":"-8.0465541","description":"The Health Centre , Shannonbridge","code":"L291"}},{"$":{"name":"Shrule","town":"Shrule","lat":"53.5205580","lng":"-9.0876069","description":"Health Centre Dalgan Road , Shrule ","code":"C113"}},{"$":{"name":"Sion Mills","town":"Sion Mills","lat":"54.785025","lng":"-7.476617","description":"Community Hall Main Street Sion Mills Strabane , BT82 9SS","code":"U163"}},{"$":{"name":"Sixmilebridge","town":"Sixmilebridge","lat":"52.7419669","lng":"-8.7731637","description":"Parochial Hall , Sixmilebridge","code":"M22"}},{"$":{"name":"Sixmilecross and Beragh Gp.","town":"Beragh","lat":"54.61181","lng":"-7.308723","description":"The Cornerstone House Drumduff Road , Beragh","code":"U146"}},{"$":{"name":"Skerries","town":"Dublin-N","lat":"53.579821","lng":"-6.106794","description":"Methodist Church Strand Street , Skerries","code":"L54"}},{"$":{"name":"Skibbereen","town":"Skibbereen","lat":"51.549689","lng":"-9.269478","description":"18A Bridge Street , Skibbereen ","code":"M87"}},{"$":{"name":"Slane","town":"Slane","lat":"53.710641","lng":"-6.54186","description":"Old School (beside RC Church) , Slane ","code":"L215"}},{"$":{"name":"Sligo Town, Back to Basics","town":"Sligo","lat":"54.272198","lng":"-8.477368","description":"Methodist Hall Upstairs side entrance (Opposite Clarence Hotel) , Wine Street","code":"C90"}},{"$":{"name":"Sligo Town, Big Book AA Group","town":"Sligo","lat":"54.272219","lng":"-8.477644","description":"Downstairs Methodist Church Hall , Wine Street ","code":"C128"}},{"$":{"name":"Sligo Town, Downtown","town":"Sligo","lat":"54.267567","lng":"-8.483527","description":"Nazareth House Church Hill , Sligo","code":"C93"}},{"$":{"name":"Sligo Town, Dunally, St. Joseph's","town":"Sligo","lat":"54.291223","lng":"-8.432507","description":"St. Joseph's Alzhemiers Day Care Centre Dunally , Sligo ","code":"C96"}},{"$":{"name":"Sligo Town, Ransboro","town":"Sligo","lat":"54.2438","lng":"-8.5402","description":"Sacristy Ransboro Church , Knocknahur","code":"C97"}},{"$":{"name":"Sligo Town, St. Michaels Sat. Night","town":"Sligo","lat":"54.22","lng":"-8.29","description":"St. Michaels Family Life Ctr. , Churchill","code":"C92"}},{"$":{"name":"Sligo Town, St. Michaels Sun. Morn","town":"Sligo","lat":"54.269270","lng":"-8.481743","description":"St. Michaels Family Centre , Church Hill  ","code":"C91"}},{"$":{"name":"Sligo Town, Temple St., St. Anne's","town":"Sligo","lat":"54.269610","lng":"-8.479348","description":"Gilhooley Hall , Temple Street  ","code":"C94"}},{"$":{"name":"Sligo, Step by Step","town":"Sligo","lat":"","lng":"","description":"St. Michael's  Church Hill , Sligo","code":"C173"}},{"$":{"name":"Spiddal","town":"Spiddal","lat":"53.2442326","lng":"-9.3076060","description":"Spiddal National School , Spiddal","code":"C37"}},{"$":{"name":"St. Michael's Group","town":"Dublin-S","lat":"53.296045","lng":"-6.316252","description":"St. Michael's House Tallaght Road (opp Cheeverstown House) , Templeogue","code":"L141"}},{"$":{"name":"St.V.De Paul Tuesday","town":"Dungarvan","lat":"52.0896568","lng":"-7.6224724","description":"St. Vincent De Paul , Dungarvan","code":"M249"}},{"$":{"name":"Stabannon","town":"Stabannon","lat":"53.867409","lng":"-6.441379","description":"Behind Stabannon Church , Stabannon ","code":"L278"}},{"$":{"name":"Stanhope Street","town":"Dublin-N","lat":"53.352237","lng":"-6.280028","description":"Stanhope Centre , Grangegorman Lower  ","code":"L55"}},{"$":{"name":"Stanhope, St. Dymphnas Group","town":"Dublin-N","lat":"53.352235","lng":"-6.280026","description":"Stanhope Centre , Grangegorman Road Lower ","code":"L64"}},{"$":{"name":"Stanorlar","town":"Stranorlar","lat":"54.804556","lng":"-7.750747","description":"St. Joseph's Day Hospital , Stranorlar ","code":"U108"}},{"$":{"name":"Stillorgan Beg. Morning Meeting","town":"Dublin-S","lat":"53.285141","lng":"-6.191168","description":"AA Room St. John of God Hospital , Stillorgan","code":"L74"}},{"$":{"name":"Stillorgan Galloping Green Group","town":"Dublin-S","lat":"53.279045","lng":"-6.184697","description":"The Liturgical Centre  Whites Cross Newtownpark Avenue , Stillorgan","code":"L358"}},{"$":{"name":"Stillorgan John of Gods Big Book","town":"Dublin-S","lat":"53.285543","lng":"-6.191665","description":"St. John of God Hospital , Stillorgan","code":"L76"}},{"$":{"name":"Stillorgan St. John of God Sun/Tues.","town":"Dublin-S","lat":"53.285543","lng":"-6.191665","description":"Hall Beneath Chapel St. John of God Hospital , Stillorgan","code":"L130"}},{"$":{"name":"Strabane ","town":"Strabane","lat":"54.8248447","lng":"-7.4605987","description":"St. Vincent De Paul Shop Barrack Street Strabane , BT82 8HG","code":"U164"}},{"$":{"name":"Stradbally","town":"Stradbally","lat":"52.135727","lng":"-7.467356","description":"Barron Hall , Stradbally","code":"M267"}},{"$":{"name":"Straffan","town":"Straffan","lat":"53.3124855","lng":"-6.6081049","description":"St. Bridgets National School , Straffan ","code":"L318"}},{"$":{"name":"Strathroy","town":"Omagh","lat":"54.612106","lng":"-7.303746","description":"Meeting Room Christ the King Chapel Strathroy Road , BT79 7DW","code":"U257"}},{"$":{"name":"Sutton","town":"Dublin-N","lat":"53.3808477","lng":"-6.1007444","description":"Methodist Church , Sutton","code":"L57"}},{"$":{"name":"Sutton Bayside Lunch Time","town":"Dublin-N","lat":"53.389119","lng":"-6.140275","description":"Bayside Community Centre Bayside , Sutton            ","code":"L60"}},{"$":{"name":"Swanlinbar","town":"Swanlinbar","lat":"54.193106","lng":"-7.70486","description":"Swanlinbar Day Centre Main Street , Swanlinbar    ","code":"U171"}},{"$":{"name":"Swinford 1 Gp.","town":"Swinford","lat":"53.9442432","lng":"-8.9464967","description":"Swinford District Hospital Dublin Road , Swinford","code":"C73"}},{"$":{"name":"Swinford 2","town":"Swinford","lat":"53.935823","lng":"-8.949383","description":"Áras Attracta  , Swinford","code":"C72"}},{"$":{"name":"Swords","town":"Dublin-N","lat":"53.452701","lng":"-6.224645","description":"Coláiste Choilm C.B.S. School Main Street , Swords ","code":"L61"}},{"$":{"name":"Swords Saoirse Group","town":"Dublin-N","lat":"53.458792","lng":"-6.237769","description":"Base Resource Centre Brackenstown Road (opposite St. Cronan's Church) , Swords ","code":"L324"}},{"$":{"name":"Taghmon","town":"Taghmon","lat":"52.324095","lng":"-6.654325","description":"Scout Hall Church Road , Taghmon","code":"L402"}},{"$":{"name":"Tallaght Village","town":"Dublin-S","lat":"53.288007","lng":"-6.362430","description":"St. Dominic's Hall Old Post Office , Tallaght","code":"L137"}},{"$":{"name":"Tallaght, Common Solution","town":"Dublin-S","lat":"53.306707","lng":"-6.368423","description":"Kingswood Community Centre Kingswood , Tallaght","code":"L331"}},{"$":{"name":"Tallaght, New Hope","town":"Dublin-S","lat":"53.275604","lng":"-6.379028","description":"CARP Centre Killinarden Community Centre , Killinarden","code":"L409"}},{"$":{"name":"Tarbert","town":"Tarbert","lat":"52.5738769","lng":"-9.3829870","description":"The Presbytery Listowel Road , Tarbert  ","code":"M228"}},{"$":{"name":"Templemore","town":"Templemore","lat":"52.795042","lng":"-7.831857","description":"Social Service Centre Bank Street , Templemore","code":"M170"}},{"$":{"name":"Templemore, Monday Night","town":"Templemore","lat":"52.797514","lng":"-7.828821","description":"Mc Auley Community Centre Church Road , Templemore","code":"M169"}},{"$":{"name":"Templepatrick","town":"Templepatrick","lat":"54.703734","lng":"-6.094623","description":"The Old Presbyterian Church Templepatrick , BT39 0AT ","code":"U247"}},{"$":{"name":"Tempo","town":"Tempo","lat":"54.376762","lng":"-7.461484","description":"Tempo Community Centre St. Mary's Community Hall Tempo , BT94 3LU ","code":"U204"}},{"$":{"name":"Tempo Road Saturday Night Group","town":"Enniskillen","lat":"54.343676","lng":"-7.62439","description":"Tempo Road Day Centre Tempo Road  , BT74 6HR ","code":"U131"}},{"$":{"name":"Termon","town":"Termon","lat":"55.050131","lng":"-7.818388","description":"Currin School , Termon ","code":"U99"}},{"$":{"name":"The Neale","town":"The Neale","lat":"53.572218","lng":"-9.229149","description":"The Priests House , The Neale  ","code":"C62"}},{"$":{"name":"Thomastown","town":"Thomastown","lat":"52.527328","lng":"-7.135524","description":"Thomastown Assumption Church , Thomastown ","code":"L169"}},{"$":{"name":"Thurles","town":"Thurles","lat":"52.6805216","lng":"-7.8145021","description":"C.B.S Secondary School Templemore Road , Thurles ","code":"M171"}},{"$":{"name":"Tinahely","town":"Tinahely","lat":"52.7987810","lng":"-6.4645251","description":"National School School Road , Tinahely ","code":"L264"}},{"$":{"name":"Tipperary Town","town":"Tipperary","lat":"52.4748756","lng":"-8.1572041","description":"Community Centre Michael Street , Tipperary ","code":"M174"}},{"$":{"name":"Togher","town":"Cork","lat":"51.873626","lng":"-8.496943","description":"Way of the Cross Church , Togher Road ","code":"M88"}},{"$":{"name":"Toomebridge","town":"Toomebridge","lat":"54.752279","lng":"-6.461817","description":"Pastoral Centre Main Street Toomebridge , BT41 3NJ","code":"U35"}},{"$":{"name":"Tournafulla","town":"Tournafulla","lat":"52.3609986","lng":"-9.1274611","description":"New Community Hall , Tournafulla","code":"M143"}},{"$":{"name":"Tralee, Ozanam House","town":"Tralee","lat":"52.2693808","lng":"-9.7029548","description":"Ozanam House Room 4 Day Place , Tralee","code":"M106"}},{"$":{"name":"Tralee, Phoenix","town":"Tralee","lat":"52.274421","lng":"-9.705391","description":"Rock Business Centre C.D.P. Rock Street , Tralee ","code":"M110"}},{"$":{"name":"Tralee, Presentation ","town":"Tralee","lat":"52.26864","lng":"-9.701614","description":"Prefab 1 Presentation Convent Green Lane Castle Street , Tralee","code":"M107"}},{"$":{"name":"Tramore","town":"Tramore","lat":"52.163051","lng":"-7.149417","description":"The Meeting Place Upper Branch Road , Tramore","code":"M185"}},{"$":{"name":"Trevor Hill","town":"Newry","lat":"54.178439","lng":"-6.335186","description":"3rd Floor 11C Trevor Hill Newry , BT34 1DN ","code":"U121"}},{"$":{"name":"Trim","town":"Trim","lat":"53.56426","lng":"-6.800998","description":"Meath Opportunities  For Training Centre Eamonn Duggan Ind. Estate , Athboy Road","code":"L375"}},{"$":{"name":"Trim, Mustard Seed","town":"Trim","lat":"53.552595","lng":"-6.791705","description":"Parish Centre Patrick Street , Trim ","code":"L216"}},{"$":{"name":"Tuam","town":"Tuam","lat":"53.512513","lng":"-8.847492","description":"Social Service Centre Dublin Road , Tuam","code":"C39"}},{"$":{"name":"Tuam","town":"Tuam","lat":"53.512028","lng":"-8.847073","description":"Parish Centre Dublin Road , Tuam ","code":"C149"}},{"$":{"name":"Tuam, Corofin","town":"Tuam","lat":"53.5148623","lng":"-8.8512810","description":"Dr Duggan Hall (side door) Corofin , Tuam","code":"C38"}},{"$":{"name":"Tubbercurry","town":"Tubbercurry","lat":"54.053","lng":"-8.7265","description":"Old Parochial House Ballymote Road , Tubbercurry","code":"C98"}},{"$":{"name":"Tulla","town":"Tulla","lat":"52.8688641","lng":"-8.7572561","description":"The Sacristy , Tulla","code":"M23"}},{"$":{"name":"Tullamore","town":"Tullamore","lat":"53.273003","lng":"-7.487655","description":"The Old Camping Centre Tanyard , Tullamore","code":"L223"}},{"$":{"name":"Tullow","town":"Tullow","lat":"52.8019730","lng":"-6.7352210","description":"The Sacristy Rear RC Church , Tullow","code":"L4"}},{"$":{"name":"Tullow, Teach Brid","town":"Tullow","lat":"52.8019730","lng":"-6.7352210","description":"Teach Brid Behind RC Church Convent Grounds , Tullow","code":"L307"}},{"$":{"name":"Tully Inverin","town":"Tully Inverin","lat":"53.2683566","lng":"-9.4057861","description":"Tully Hall behind Tully National School  (back of hall) , Tully Inverin","code":"C40"}},{"$":{"name":"Virgina","town":"Virgina","lat":"53.830967","lng":"-7.068253","description":"Health Centre Dublin Road , Virgina","code":"U63"}},{"$":{"name":"Warrenpoint","town":"Warrenpoint","lat":"54.1453111","lng":"-6.1663833","description":"Meeting Rooms St. Peter's Church St. Peter's Street Warrenpoint , BT34 3NG","code":"U127"}},{"$":{"name":"Waterford City, Gaultier","town":"Waterford","lat":"52.2557989","lng":"-7.1130679","description":"Manor School , Manor Street  ","code":"M189"}},{"$":{"name":"Waterford City, Lwr. Yellow Road, Mercy Gp.","town":"Waterford","lat":"52.2592971","lng":"-7.1210592","description":"St. Bridget's Centre , Lower Yellow Road","code":"M196"}},{"$":{"name":"Waterford City, Mount Sion","town":"Waterford","lat":"52.2566864","lng":"-7.1180414","description":"Mount Sion Edmond Rice Centre , Barrack Street ","code":"M190"}},{"$":{"name":"Waterford City, New Beginning Group","town":"Waterford","lat":"52.259588","lng":"-7.109807","description":"Wadding Hall , Lady Lane ","code":"M191"}},{"$":{"name":"Waterford City, Presentation Gp.","town":"Waterford","lat":"52.2503962","lng":"-7.1361825","description":"Parish Meeting Room St. Paul's School , Lisduggan ","code":"M192"}},{"$":{"name":"Waterford City, Saint John 's City Centre","town":"Waterford","lat":"52.2581795","lng":"-7.1097054","description":"Sacristy St. Johns Church  , Parnell Street","code":"M194"}},{"$":{"name":"Waterford City, St. John s Park","town":"Waterford","lat":"52.2447552","lng":"-7.1080394","description":"Youth Resource Centre , St. John's Park","code":"M223"}},{"$":{"name":"Waterville, Friday Night","town":"Waterville","lat":"51.835473","lng":"-10.171366","description":"St. Finian's National School Spunkane , Waterville","code":"M258"}},{"$":{"name":"Waterville, South Kerry ","town":"Waterville","lat":"51.835406","lng":"-10.171280","description":"St. Finian's National School , Waterville ","code":"M111"}},{"$":{"name":"Wellington Street","town":"Dublin-N","lat":"53.356132","lng":"-6.26865","description":"C/o Crosscare , Wellington Street ","code":"L62"}},{"$":{"name":"Westport Parish Centre","town":"Westport","lat":"53.8011282","lng":"-9.5223120","description":"Westport Parish Centre James Street , Westport ","code":"C74"}},{"$":{"name":"Westport SSC","town":"Westport","lat":"53.8011282","lng":"-9.5223120","description":"Westport Social Service Centre (At the Convent side gate) Mill Road , Westport","code":"C75"}},{"$":{"name":"Wexford Town, Anne St. Fellowship","town":"Wexford","lat":"52.338479","lng":"-6.46105","description":"Presbyterian Church Anne Street , Wexford ","code":"L340"}},{"$":{"name":"Wexford Town, Big Book Group","town":"Wexford","lat":"52.336426","lng":"-6.46002","description":"C/o Parish Hall South Main Street , Wexford","code":"L248"}},{"$":{"name":"Wexford Town, Clonard","town":"Wexford","lat":"52.33489","lng":"-6.468152","description":"Community Mental Health Ctr. , Summerhill  ","code":"L239"}},{"$":{"name":"Wexford Town, Kerlogue","town":"Wexford","lat":"52.3190471","lng":"-6.4543881","description":"Aiséiri Roxborough , Rosslare Road ","code":"L240"}},{"$":{"name":"Wexford Town, Parish Hall Group","town":"Wexford","lat":"52.336316","lng":"-6.459942","description":"Dun Mhuire  , South Main Street ","code":"L247"}},{"$":{"name":"Whitehead","town":"Whitehead","lat":"54.751167","lng":"-5.712569","description":"Lourdes Recreation Hall Victoria Ave. , BT38 9QF ","code":"U195"}},{"$":{"name":"Wicklow","town":"Wicklow","lat":"52.978478","lng":"-6.039471","description":"Club Room Holy Rosary School Dominican College Campus , Wicklow Town","code":"L265"}},{"$":{"name":"Wicklow One Day at a Time Group","town":"Wicklow","lat":"52.978478","lng":"-6.03947","description":"Methodist Church Hall Opp. Dominican Convent Gates , Wicklow Town ","code":"L362"}},{"$":{"name":"Youghal","town":"Youghal","lat":"51.9532405","lng":"-7.8504759","description":"Colaiste Scoil Eoin Golf Links Road , Youghal","code":"M89"}}]}}